Unnamed: 0.3,Unnamed: 0.2,Unnamed: 0.1,Unnamed: 0,사업장명,인허가일자,영업상태명,폐업일자,지번주소,도로명주소,좌표정보(X),좌표정보(Y),소재지면적,가격대,위도,경도,지하철역과거리,주변저가형카페수,주변중저가형카페수,주변고가형카페수,주변평균월세,주변유동인구수
0,0.0,0.0,0.0,이디야 돌곶이역점,2023-03-24,영업/정상,,서울특별시 성북구 석관동 246-10,"서울특별시 성북구 돌곶이로22길 3, 1층 (석관동)",205060.731432101,456432.184537298,52.9,중저가,37.61020752429728,127.05521293669705,0.1095290887591824,2.0,1.0,0.0,36.16666666666666,3542681.0
1,1.0,1.0,1.0,이디야 고척스카이돔점,2018-01-15,영업/정상,,서울특별시 구로구 고척동 76-160 골든타워빌딩 별관 지상1층 101호,"서울특별시 구로구 경인로 397, 골든타워빌딩 별관동 지상1층 101호 (고척동)",187888.272226034,443955.614464686,101.12,중저가,37.497728143347736,126.86093276883304,1.70306778687455,1.0,0.0,1.0,47.12222222222224,224948.0
2,2.0,2.0,2.0,이디야커피방화역점,2013-03-08,폐업,2023-02-28,서울특별시 강서구 방화동 830 오피앙(지상 1층) 115~116호,"서울특별시 강서구 금낭화로 146, 오피앙 1층 115~116호 (방화동)",183438.673656262,452893.622300597,53.16,중저가,37.57818916210502,126.8104123017116,0.2241333406984268,2.0,0.0,0.0,28.6,215245.0
3,3.0,3.0,3.0,이디야커피(경복궁역점),2013-04-29,폐업,2023-03-02,서울특별시 종로구 체부동 51,"서울특별시 종로구 자하문로 7, 1층 (체부동)",197475.456683105,452713.481753987,50.4,중저가,37.57671251830878,126.9693187794436,0.3586047581157144,0.0,1.0,3.0,82.53333333333333,494058.0
4,4.0,4.0,4.0,이디야커피 구의자양로점,2020-09-02,영업/정상,,서울특별시 광진구 구의동 78-8,"서울특별시 광진구 자양로 251, 1층 (구의동)",207820.941622506,449642.287663473,112.2,중저가,37.54901241171083,127.08640192713246,0.4755133559567939,1.0,0.0,1.0,31.988888888888887,3195580.0
5,5.0,5.0,5.0,이디야커피 길동사거리점,20180720,영업/정상,,서울특별시 강동구 성내동 378-2번지 ,"서울특별시 강동구 천호대로 1132, 1층 101~103호 (성내동)",212035.001621141,447985.957150755,80.0,중저가,37.534043966469966,127.13406227131767,0.169901777101799,1.0,1.0,5.0,55.45555555555556,10118285.0
6,6.0,6.0,6.0,이디야,2013-12-05,폐업,2024-01-04,서울특별시 강동구 강일동 675-3 강일임페리얼타워 106호,"서울특별시 강동구 아리수로93길 19 (강일동, 강일임페리얼타워 106호)",215313.230134197,451469.210879017,29.05,중저가,37.56537927550482,127.1712243790546,0.9641581200482168,2.0,1.0,0.0,55.45555555555556,248692.0
7,7.0,7.0,7.0,이디야 경희궁점,2023-04-27,영업/정상,,서울특별시 종로구 신문로2가 1-117 1층,"서울특별시 종로구 경희궁1길 16, 1층 (신문로2가)",197342.144874709,452153.568549483,87.0,중저가,37.57166738760522,126.96781170729034,0.616637876294282,2.0,0.0,2.0,82.53333333333333,2438521.0
8,8.0,8.0,8.0,이디야커피구의동점,2015-02-05,폐업,2023-03-13,서울특별시 광진구 구의동 200-20,"서울특별시 광진구 아차산로 481, 1층 (구의동)",208324.939444793,448746.466638461,97.02,중저가,37.54093677083593,127.09209521882944,0.4180315142773738,2.0,0.0,2.0,46.53333333333333,4434046.0
9,9.0,9.0,9.0,이디야커피(강서가양동점),2019-10-18,폐업,2023-04-03,서울특별시 강서구 가양동 192-9 한림타운 102호,"서울특별시 강서구 강서로 511, 1층 102호 (가양동, 한림타운)",185917.670740756,452084.848958002,79.3,중저가,37.570943652629325,126.83849172519707,0.7588214331939572,2.0,0.0,0.0,28.6,1339129.0
10,10.0,10.0,10.0,이디야커피(답십리역점),2013-02-27,폐업,2023-04-28,서울특별시 동대문구 답십리동 496-1 1층,"서울특별시 동대문구 천호대로 265, 1층 (답십리동)",204468.998618777,451783.297252042,125.83,중저가,37.56832478368156,127.04848330449668,0.3707818054177201,1.0,0.0,1.0,47.67777777777778,2396402.0
11,11.0,11.0,11.0,이디야(EDIYA)신사멀버리힐스점,2023-03-15,영업/정상,,서울특별시 서초구 잠원동 27-2 1층 E104호,"서울특별시 서초구 강남대로 589, 멀버리힐스 E104호 (잠원동)",201623.318081585,445795.867294055,36.96,중저가,37.51438770452344,127.01625979728044,0.6273336237989546,1.0,0.0,7.0,64.44444444444444,512675.0
12,12.0,12.0,12.0,이디야커피(삼양시장점),2013-08-22,폐업,2023-04-06,서울특별시 강북구 미아동 760-126,서울특별시 강북구 삼양로 234 (미아동),201584.562239173,457984.365944,54.78,중저가,37.62420468770005,127.01584668785172,0.9385758859052116,1.0,0.0,0.0,36.55555555555556,845014.0
13,13.0,13.0,13.0,이디야 (마천사거리점),2014-10-30,폐업,2023-05-01,서울특별시 송파구 거여동 133-77 지상1층,"서울특별시 송파구 마천로 264, 지상1층 (거여동)",212852.620762184,443990.574678948,80.0,중저가,37.49803486165238,127.14324331539386,0.4345873539185726,2.0,0.0,1.0,30.91111111111111,8410570.0
14,14.0,14.0,14.0,이디야 커피 서광교회점,2012-05-16,영업/정상,,서울특별시 은평구 갈현동 1-29 1층,"서울특별시 은평구 통일로 951, 1층 (갈현동)",192788.982045587,458383.256731492,251.3,중저가,37.6277710830994,126.9162094286581,0.3582516171291572,0.0,0.0,0.0,42.04444444444444,2283903.0
15,15.0,15.0,15.0,이디야커피 당곡사거리,2013-11-25,폐업,2023-04-07,서울특별시 관악구 봉천동 970-22,"서울특별시 관악구 봉천로 245, 1층 (봉천동)",193654.447995374,443013.429722508,102.77,중저가,37.4892970705506,126.92614784338936,0.6045126394197337,2.0,0.0,0.0,60.3111111111111,16857941.0
16,16.0,16.0,16.0,이디야커피묵동점,2012-07-16,폐업,2023-05-02,"서울특별시 중랑구 묵동 170-1 묵동자이2단지 1-114,1-115","서울특별시 중랑구 동일로 932, 1-114,1-115호 (묵동, 묵동자이2단지)",206777.731391054,456837.219624564,114.6,중저가,37.61384588748609,127.07466258151506,0.4270965183266133,3.0,1.0,3.0,46.333333333333336,8936797.0
17,17.0,17.0,17.0,이디야커피(국민대점),2014-07-29,폐업,2023-03-20,서울특별시 성북구 정릉동 847-3,서울특별시 성북구 정릉로9라길 8 (정릉동),199965.28221496,456536.160168447,50.4,중저가,37.61115788423408,126.99750423323212,2.321749177750366,0.0,0.0,0.0,66.93333333333334,926097.0
18,18.0,18.0,18.0,이디야 논현학동점,2019-06-26,영업/정상,,서울특별시 강남구 논현동 39-20,"서울특별시 강남구 논현로131길 28, 지상1층 (논현동)",202413.749980215,445761.483091564,99.0,중저가,37.51407623110683,127.02520029424473,0.5803518404750053,0.0,0.0,0.0,64.44444444444444,839475.0
19,19.0,19.0,19.0,이디야 양원남부점,2019-08-08,폐업,2023-05-03,서울특별시 중랑구 망우동 233-28,"서울특별시 중랑구 양원역로 25-10, 1층 (망우동)",209417.812611365,455648.198276927,69.3,중저가,37.60310998399902,127.10454913818128,1.069314259798483,1.0,0.0,0.0,46.333333333333336,3519634.0
20,20.0,20.0,20.0,이디야 명동거리점,2023-06-05,영업/정상,,서울특별시 중구 충무로2가 66-9,"서울특별시 중구 명동8가길 7, 1층 (충무로2가)",198640.659565485,451053.379935307,149.87,중저가,37.56175773681231,126.98251263495138,0.3018610482554197,2.0,2.0,29.0,138.7,6915272.0
21,21.0,21.0,21.0,이디야 강서교차로점,2023-03-23,영업/정상,,서울특별시 강서구 등촌동 654-44 주신기업(주),"서울특별시 강서구 공항대로 437, 주신기업(주) 1층 101호 (등촌동)",187198.392326063,450314.997261936,59.0,중저가,37.555016307890654,126.85301995128992,1.5993334049587418,2.0,2.0,1.0,28.6,267190.0
22,22.0,22.0,22.0,이디야 CBS점,2012-12-13,폐업,2023-03-23,서울특별시 양천구 목동 917-1 CBS빌딩 1층,"서울특별시 양천구 목동서로 159-1, 1층 (목동, CBS빌딩)",188871.512837973,447348.13213342,49.59,중저가,37.52830697735907,126.8720001166052,0.4406928487263145,3.0,2.0,8.0,34.88888888888889,7750066.0
23,23.0,23.0,23.0,이디야강서사거리점,2011-05-04,폐업,2023-03-23,서울특별시 강서구 등촌동 654-44 (지상 1층),"서울특별시 강서구 공항대로 437, 1층 (등촌동, 1동)",187198.392326063,450314.997261936,76.04,중저가,37.555016307890654,126.85301995128992,1.5993334049587418,2.0,2.0,1.0,28.6,267190.0
24,24.0,24.0,24.0,이디야커피(공릉중앙점),2015-06-24,폐업,2023-06-05,"서울특별시 노원구 공릉동 238-48 1층. 7,8호","서울특별시 노원구 공릉로 146 (공릉동, 1층. 7,8호)",206953.775564133,457856.976031993,59.5,중저가,37.62303238458106,127.07666607280824,0.453004739516082,2.0,0.0,0.0,46.333333333333336,2760815.0
25,25.0,25.0,25.0,이디야커피 화곡중앙점,2017-03-07,폐업,2023-05-04,서울특별시 강서구 화곡동 24-154 (지상 1층),"서울특별시 강서구 까치산로 79, 1층 (화곡동, 본동)",186442.432351835,449289.842069874,50.0,중저가,37.54576892598222,126.84448366936414,0.6000437348808823,1.0,0.0,1.0,28.6,3096372.0
26,26.0,26.0,26.0,이디야,2023-04-17,영업/정상,,서울특별시 영등포구 영등포동6가 49-1,"서울특별시 영등포구 영등포로35가길 1, 지하1층 (영등포동6가)",191465.132086637,446630.643919677,56.1,중저가,37.52187026783104,126.90135044176746,0.3840011165714169,4.0,2.0,3.0,34.24444444444445,5611151.0
27,27.0,27.0,27.0,이디야 면목역점,2019-10-07,영업/정상,,서울특별시 중랑구 면목동 126-1 킴스아파트,"서울특별시 중랑구 면목로 429, 1층 상가 102호 (면목동, 킴스아파트)",207588.610230048,454214.379263011,79.0,중저가,37.5902082912917,127.08381970765046,0.3304282588164039,2.0,0.0,1.0,46.333333333333336,5335121.0
28,28.0,28.0,28.0,이디야카페(정릉아리랑점),2014-09-05,폐업,2023-05-11,서울특별시 성북구 정릉동 1035-6 대림아파트상가 105호,"서울특별시 성북구 북악산로 851, 105호 (정릉동, 대림아파트상가 )",201604.627294689,455202.849795642,63.0,중저가,37.59914370704831,127.01606812566472,0.5814903498831416,1.0,0.0,0.0,52.366666666666674,7431091.0
29,29.0,29.0,29.0,이디야커피전문점,2013-08-23,영업/정상,,서울특별시 성북구 정릉동 161-17 1층,"서울특별시 성북구 정릉로 251 (정릉동, 161-17 1층)",200986.983582781,455821.617180441,109.1,중저가,37.604719522561496,127.00907479526528,1.1155475222997175,1.0,0.0,0.0,52.366666666666674,3781489.0
30,30.0,30.0,30.0,이디야 서울과기대점,2007-04-23,폐업,2023-04-19,서울특별시 노원구 공릉동 208-18 1층10호,"서울특별시 노원구 공릉로 208 (공릉동,1층10호)",206797.151290281,458441.087966784,38.51,중저가,37.62829626829578,127.07489729243392,0.3394415244547746,2.0,2.0,0.0,46.333333333333336,411915.0
31,31.0,31.0,31.0,이디야커피 당고개역점,2013-12-30,영업/정상,,서울특별시 노원구 상계동 111-491,"서울특별시 노원구 상계로 313, 1층 (상계동)",207021.829716008,463163.405374887,57.26,중저가,37.67084149129377,127.07748748042174,0.1644342284683353,1.0,0.0,1.0,26.266666666666666,4149755.0
32,32.0,32.0,32.0,이디야커피(선덕고사거리점),20141006,영업/정상,,"서울특별시 도봉구 쌍문동 256 신원에벤에셀상가 101동 2층 209,225호","서울특별시 도봉구 해등로 255, 101동 지상2층 209,225호 (쌍문동, 신원에벤에셀상가)",202422.313606872,461665.385672458,79.9,중저가,37.657368063302656,127.02534832238771,1.2605623029467086,2.0,0.0,0.0,36.55555555555556,401025.0
33,33.0,33.0,33.0,이디야커피도봉보건소사거리점,2012-07-11,폐업,2024-07-26,서울특별시 도봉구 쌍문동 651 1층,"서울특별시 도봉구 해등로 157, 1층 (쌍문동)",203356.110282156,461599.456980604,93.36,중저가,37.65677119140434,127.03593045622614,0.860978859624315,5.0,0.0,1.0,36.55555555555556,5128767.0
34,34.0,34.0,34.0,이디야커피 신논현역점,2017-06-27,폐업,2023-04-21,서울특별시 서초구 반포동 737-16 1층,"서울특별시 서초구 강남대로79길 10, 1층 (반포동)",201982.976325002,444788.702273191,60.0,중저가,37.50531249869639,127.02032527928834,0.8204819473104725,2.0,1.0,12.0,64.44444444444444,14865818.0
35,35.0,35.0,35.0,이디야대림3동점 주식회사 앙크인베스트먼트,2012-12-04,영업/정상,,서울특별시 영등포구 대림동 688-2,"서울특별시 영등포구 대림로 212, 1층 (대림동)",190927.29229011,444157.765368221,96.0,중저가,37.49958457315658,126.8952970327547,0.4979213350623643,0.0,0.0,0.0,34.24444444444445,3363916.0
36,36.0,36.0,36.0,이디야커피 고덕강일2지구점,2023-06-15,영업/정상,,서울특별시 강동구 강일동 70-15,"서울특별시 강동구 아리수로93나길 76, 1층 106,107호 (강일동)",215466.920457331,452250.027592269,59.2,중저가,37.57241175363189,127.17298034923606,1.678666631889413,2.0,0.0,1.0,55.45555555555556,248692.0
37,37.0,37.0,37.0,이디야 고척사거리점,2018-12-03,영업/정상,,서울특별시 구로구 고척동 195-13 종만빌딩,"서울특별시 구로구 고척로 228-6, 종만빌딩 (고척동)",187399.697268421,444855.737125874,113.72,중저가,37.505831640645134,126.85539223193194,1.1804503991667208,1.0,0.0,0.0,47.12222222222224,1838697.0
38,38.0,38.0,38.0,이디야,2008-03-20,폐업,2023-12-27,서울특별시 종로구 연건동 77-2 지상1층,"서울특별시 종로구 대학로 81-1 (연건동,지상1층)",200099.736802632,452911.826843708,20.0,중저가,37.57850321913209,126.99902684901114,0.4724396522049905,2.0,0.0,4.0,50.4,1666179.0
39,39.0,39.0,39.0,이디야 가산SK V1,2018-06-07,폐업,2023-05-26,"서울특별시 금천구 가산동 371-41 가산 에스케이 브이원 센터, 1층 121일부호","서울특별시 금천구 가산디지털1로 171, 가산 에스케이 브이원 센터 1층 121일부호 (가산동)",189378.332493727,442066.99866487,66.0,중저가,37.48073018278007,126.87781052213768,0.410638880108565,6.0,1.0,6.0,47.12222222222224,4504033.0
40,40.0,40.0,40.0,이디야 구로미성점,2015-08-31,영업/정상,,서울특별시 구로구 신도림동 399 기임빌딩,"서울특별시 구로구 구로중앙로 228, 기임빌딩 1층 106,107,108호 (신도림동)",189026.342384854,444895.113011547,68.2,중저가,37.50620728889439,126.87378854209912,1.0014300222405257,1.0,0.0,1.0,47.12222222222224,2731150.0
41,41.0,41.0,41.0,이디야 서울삼성내과점,2020-06-30,영업/정상,,서울특별시 송파구 잠실동 294-4 오룡빌딩,"서울특별시 송파구 백제고분로 126, 오룡빌딩 1층 103,104호 (잠실동)",207069.724198768,444885.543047372,56.57,중저가,37.5061604563592,127.07785561787828,0.6558045688392509,1.0,0.0,2.0,34.18888888888889,3656103.0
42,42.0,42.0,42.0,이디야커피 삼전중앙점,2023-06-30,영업/정상,,서울특별시 송파구 삼전동 100-5,"서울특별시 송파구 백제고분로27길 5, 1층, 2층 (삼전동)",208115.272928815,444612.651896276,265.65,중저가,37.50369319309073,127.08967756505407,0.0539215290731745,2.0,0.0,0.0,34.18888888888889,8996784.0
43,43.0,43.0,43.0,이디야 경복궁역점,2023-06-29,영업/정상,,서울특별시 종로구 체부동 51 성명빌딩 1층,"서울특별시 종로구 자하문로 7, 성명빌딩 1층 (체부동)",197475.456683105,452713.481753987,50.4,중저가,37.57671251830878,126.9693187794436,0.3586047581157144,0.0,1.0,3.0,82.53333333333333,494058.0
44,44.0,44.0,44.0,이디야커피 청룡중앙점,2019-01-22,영업/정상,,서울특별시 관악구 봉천동 1562-18 제이빌딩,"서울특별시 관악구 쑥고개로 80, 제이빌딩 1층 (봉천동)",195088.492091096,441889.229650024,69.3,중저가,37.479176853780864,126.94237053314365,0.5656813612656977,1.0,0.0,0.0,60.3111111111111,3101192.0
45,45.0,45.0,45.0,이디야 국립국악원 예악당,2023-06-29,영업/정상,,서울특별시 서초구 서초동 740-4 국립국악원 예악당 1층,"서울특별시 서초구 남부순환로 2364, 국립국악원 예악당 1층 (서초동)",200732.736368754,441797.039635718,34.8,중저가,37.47835936904357,127.00618276015771,0.8707727585701651,0.0,0.0,1.0,37.3,3621863.0
46,46.0,46.0,46.0,아라마크(주) 연세의료원 제중관 이디야커피,2014-08-14,영업/정상,,"서울특별시 서대문구 신촌동 134 신촌세브란스병원, 1층","서울특별시 서대문구 연세로 50-1, 신촌세브란스병원 1층 (신촌동)",194584.959249312,451381.585492051,36.3,중저가,37.56469964305744,126.9366069810422,0.9809182078217238,2.0,2.0,3.0,45.63333333333334,394961.0
47,47.0,47.0,47.0,아라마크(주) 연세의료원 ABMRC 이디야커피,2013-02-20,영업/정상,,"서울특별시 서대문구 신촌동 134 세브란스병원, 연세의료원 ABMRC","서울특별시 서대문구 연세로 50-1, 신촌세브란스병원, 연세의료원 ABMRC (신촌동)",194584.959249312,451381.585492051,53.0,중저가,37.56469964305744,126.9366069810422,0.9809182078217238,2.0,2.0,3.0,45.63333333333334,394961.0
48,48.0,48.0,48.0,이디야 천호1동점,2023-12-29,영업/정상,,서울특별시 강동구 천호동 395-78 헤리티지,"서울특별시 강동구 구천면로34길 43, 지1층 비101호 (천호동, 헤리티지)",211736.311628564,448929.58952831,103.36,중저가,37.542549831551526,127.13069789252826,0.667102439501542,1.0,1.0,0.0,55.45555555555556,3644599.0
49,49.0,49.0,49.0,이디야 면목늘찬병원점,2023-05-17,영업/정상,,서울특별시 중랑구 면목동 179-24 늘찬병원,"서울특별시 중랑구 동일로 643, 늘찬병원 1층 (면목동)",206963.656507439,453966.434982103,125.61,중저가,37.587979247030205,127.07674133861534,0.9453130503125404,0.0,0.0,0.0,46.333333333333336,6443356.0
50,50.0,50.0,50.0,이디야커피 구일역점,2014-08-14,영업/정상,,"서울특별시 구로구 구로동 642-108 혜원리버파크 1층 112,113호","서울특별시 구로구 구일로 110 (구로동, 혜원리버파크 1층 112,113호)",188611.564007526,443658.176253167,82.5,중저가,37.49505748378946,126.86911673962872,1.8880861797992337,3.0,0.0,0.0,47.12222222222224,297734.0
51,51.0,51.0,51.0,이디야에스프레소신설점,20010914,영업/정상,,서울특별시 종로구 숭인동 200-13 ,"서울특별시 종로구 난계로29길 30, 1층 (숭인동)",201827.31373295,452438.762225231,66.2,중저가,37.57423928265053,127.01858314659177,0.1459536995001498,1.0,1.0,3.0,44.73333333333333,1768964.0
52,52.0,52.0,52.0,이디야 강일점,2024-01-03,영업/정상,,서울특별시 강동구 강일동 675-3 임페리얼타워,"서울특별시 강동구 아리수로93길 19, 임페리얼타워 1층 105,106호 (강일동)",215313.230134197,451469.210879017,58.1,중저가,37.56537927550482,127.1712243790546,0.9641581200482168,2.0,1.0,0.0,55.45555555555556,248692.0
53,53.0,53.0,53.0,이디야커피 마곡수명산점,2014-06-17,영업/정상,,서울특별시 강서구 내발산동 750-9 웨스트엔드문화센터 (지상 1층) 103~104호,"서울특별시 강서구 수명로 68-27, 1층 103~104호 (내발산동, 웨스트엔드문화센터)",184615.262498687,450059.812591304,66.0,중저가,37.55267746172076,126.82379170505254,0.8507676523337033,3.0,0.0,0.0,28.6,44150.0
54,54.0,54.0,54.0,이디야노량진드림스퀘어점,2021-02-23,영업/정상,,서울특별시 동작구 노량진동 16-1 노량진 드림스퀘어 복합빌딩,"서울특별시 동작구 노들로2길 7, 노량진 드림스퀘어 복합빌딩 1층 C113, C114호 (노량진동)",194571.152376388,445790.549860682,97.5,중저가,37.51432476938597,126.93649251864922,1.1418266029377628,2.0,2.0,2.0,26.58888888888889,7278814.0
55,55.0,55.0,55.0,이디야 상도파크엘점,2024-01-04,영업/정상,,서울특별시 동작구 상도동 904 상도역 롯데캐슬 파크엘,"서울특별시 동작구 양녕로 220, 제지하1층 제에이-2호 (상도동, 상도역 롯데캐슬 파크엘)",195221.942587848,444278.227772381,84.12,중저가,37.50070243264682,126.94386357743588,0.4348579278743235,0.0,1.0,0.0,26.58888888888889,2231944.0
56,56.0,56.0,56.0,이디야커피 하계온천점,2016-05-23,폐업,2023-08-17,서울특별시 노원구 하계동 251-4 인정빌딩 104호,"서울특별시 노원구 노원로 257, 104호 (하계동, 인정빌딩)",206350.493353359,459768.681704353,88.71,중저가,37.64026075000999,127.06984884451552,0.5689110194053693,2.0,0.0,1.0,26.266666666666666,1135496.0
57,57.0,57.0,57.0,이디야커피 역삼월드점,2023-10-04,영업/정상,,서울특별시 강남구 역삼동 754-2 도곡프라자,"서울특별시 강남구 역삼로52길 14, 도곡프라자 지상1층 102호 (역삼동)",204170.278135097,444036.656041328,36.75,중저가,37.498529441968905,127.04505874319136,0.666037858664277,0.0,0.0,1.0,69.35555555555555,1187408.0
58,58.0,58.0,58.0,이디야상계역사거리점,2018-07-20,영업/정상,,서울특별시 노원구 상계동 169-461,"서울특별시 노원구 한글비석로 409, 1,2층 (상계동)",206181.703785021,462084.524140091,142.03,중저가,37.66112704878069,127.06795583541675,0.4995705534391978,2.0,0.0,1.0,26.266666666666666,2990257.0
59,59.0,59.0,59.0,이디야 삼전역점,2015-02-06,영업/정상,,서울특별시 송파구 삼전동 133-6 지상1층,"서울특별시 송파구 백제고분로 263, 지상1층 (삼전동)",208401.243206636,444512.866698716,79.3,중저가,37.50279159446296,127.09291059042536,0.3561426955666786,1.0,0.0,0.0,34.18888888888889,8996784.0
60,60.0,60.0,60.0,이디야라이프점,2004-04-01,영업/정상,,서울특별시 영등포구 여의도동 61-3 라이프오피스텔 지하1층 44호동,"서울특별시 영등포구 63로 40, 지하1층 44호동 (여의도동,라이프오피스텔)",194561.746032498,446364.318286465,62.43,중저가,37.51949434171255,126.93638182983928,0.9318087094467148,1.0,0.0,0.0,26.58888888888889,253168.0
61,61.0,61.0,61.0,이디야 동대문 팀204점,2023-10-11,영업/정상,,서울특별시 중구 신당동 204-48 Team204,"서울특별시 중구 마장로 30, Team204 3층 (신당동)",201121.306096947,451706.52701165,66.0,중저가,37.56764301275607,127.01059002419558,0.2614684417728776,2.0,1.0,1.0,44.73333333333333,237408.0
62,62.0,62.0,62.0,이디야커피 신정역점,2022-09-19,폐업,2024-01-05,서울특별시 양천구 신정동 922-17,"서울특별시 양천구 오목로 155, 1층 (신정동)",187082.051039049,446981.829794841,83.7,중저가,37.52498318459137,126.85176221257498,0.3896813392978846,1.0,1.0,1.0,28.6,4809971.0
63,63.0,63.0,63.0,이디야 커피 한성대점,2009-07-10,영업/정상,,서울특별시 성북구 삼선동2가 198 (102호),"서울특별시 성북구 삼선교로10길 45 (삼선동2가,(102호))",200815.10615205,453764.792287494,30.0,중저가,37.58618801405392,127.0071262270344,0.2350822723479627,1.0,0.0,1.0,50.4,2642581.0
64,64.0,64.0,64.0,이디야커피목동남부점,2016-08-30,폐업,2023-08-31,"서울특별시 양천구 신정동 203-7 지상1층 2,3호","서울특별시 양천구 목동남로 46, 지상1층 2,3호 (신정동)",187971.561450511,445180.40867328,60.0,중저가,37.50876457990158,126.86185451699824,0.5439156279898425,2.0,0.0,0.0,47.12222222222224,2622793.0
65,65.0,65.0,65.0,이디야(아현역점),2024-01-08,영업/정상,,서울특별시 서대문구 북아현동 126-22 아현 메디컬,"서울특별시 서대문구 신촌로37길 10, 아현 메디컬 101호 일부 (북아현동)",196134.284316417,450605.206350745,79.85,중저가,37.55771246125213,126.95414738987613,0.1267753822051509,2.0,1.0,2.0,60.1,774184.0
66,66.0,66.0,66.0,이디야커피 연희홍연길점,2023-10-13,영업/정상,,서울특별시 서대문구 연희동 717-7,"서울특별시 서대문구 홍제천로 146-9, 1층 (연희동)",193750.234026215,452677.98959305,59.37,중저가,37.57637473704935,126.92714786995032,1.7626437587617672,0.0,0.0,0.0,51.66666666666666,175713.0
67,67.0,67.0,67.0,이디야,2023-10-17,영업/정상,,서울특별시 관악구 신림동 92-32 서원동성당,"서울특별시 관악구 신림로46길 1, 서원동성당 지하1층 (신림동)",194048.821645693,441810.964762427,83.66,중저가,37.47846550553896,126.93061694454752,0.6687969162336611,2.0,1.0,0.0,70.85555555555555,3560125.0
68,68.0,68.0,68.0,이디야커피전농뉴타운점,2013-03-25,폐업,2023-10-13,서울특별시 동대문구 전농동 652-1 우일빌딩,"서울특별시 동대문구 답십리로 77, 1층 (전농동, 우일빌딩)",204313.869527831,452538.14193671,44.73,중저가,37.575126567779606,127.04673174295328,0.5057612293106022,1.0,0.0,0.0,47.67777777777778,4962209.0
69,69.0,69.0,69.0,이디야,2024-03-08,영업/정상,,서울특별시 노원구 상계동 624 상계주공15단지아파트,"서울특별시 노원구 동일로227길 26, 1층 (상계동, 상계주공15단지아파트)",204670.573678123,462933.316362013,6.61,중저가,37.66878325885245,127.05083515928254,0.5590767927439696,0.0,0.0,0.0,26.266666666666666,5900764.0
70,70.0,70.0,70.0,이디야커피 둔촌점,2010-05-27,영업/정상,,서울특별시 강동구 성내동 415-8 1층 9호,"서울특별시 강동구 양재대로 1377 (성내동,1층 9호)",211976.269176583,447462.077236492,35.47,중저가,37.529324613508926,127.13338928147265,0.6978353544663009,2.0,0.0,1.0,55.45555555555556,1234073.0
71,71.0,71.0,71.0,이디야커피,2010-10-27,폐업,2024-03-15,서울특별시 영등포구 당산동3가 315 외2필지 지상1층,"서울특별시 영등포구 당산로 110 (당산동3가,외2필지 지상1층)",190791.225613055,446926.797172515,35.25,중저가,37.52453206555059,126.89372337369517,0.0562293237470639,1.0,0.0,2.0,34.24444444444445,7306631.0
72,72.0,72.0,72.0,이디야 등촌3동성당점,2024-06-20,영업/정상,,서울특별시 강서구 등촌동 667-7 SJC빌딩,"서울특별시 강서구 강서로56길 110, SJC빌딩 1층 일부호 (등촌동)",186221.461740975,450744.023135457,91.27,중저가,37.55886762238666,126.84195580145612,1.178363598012157,3.0,1.0,2.0,28.6,284729.0
73,73.0,73.0,73.0,이디야커피 은평신사점,2024-05-07,영업/정상,,서울특별시 은평구 신사동 18-24 새마을금고신사동제2분사무소,"서울특별시 은평구 갈현로1길 21, 새마을금고신사동제2분사무소 1층 (신사동)",191794.541628826,455218.994158124,73.3,중저가,37.59925330174726,126.9049799796381,0.876760735526178,1.0,0.0,0.0,42.04444444444444,6697949.0
74,74.0,74.0,74.0,(주)비지에프휴먼넷 이디야 관악산으뜸점,2024-08-16,영업/정상,,서울특별시 관악구 신림동 210,"서울특별시 관악구 신림로 21, 2층 (신림동)",195098.743616416,440685.622331231,167.28,중저가,37.468332378722735,126.94249454404276,1.765719829818781,0.0,0.0,0.0,70.85555555555555,2090464.0
75,75.0,75.0,75.0,이디야 삼성금융연수원점,2023-12-29,영업/정상,,서울특별시 서초구 서초동 1641-10 서초금융캠퍼스 1층,"서울특별시 서초구 사임당로23길 27, 서초금융캠퍼스 1층 (서초동)",201730.78273369,443305.502426124,394.35,중저가,37.49194937345763,127.01746969459114,0.3794563122716272,0.0,0.0,1.0,40.93333333333334,1878489.0
76,76.0,76.0,76.0,비밀베이커리와 이디야커피,2024-03-18,영업/정상,,서울특별시 중구 을지로6가 18-37,"서울특별시 중구 을지로43길 38, 지하1층 (을지로6가)",200616.304949685,451713.374319666,65.98,중저가,37.56770514694643,127.0048738768168,0.4241078450621295,4.0,1.0,8.0,58.21111111111111,4110785.0
77,77.0,77.0,77.0,이디야 고려대 타이거프라자,2012-04-16,영업/정상,,서울특별시 성북구 안암동5가 1-2 고려대학교안암캠퍼스,"서울특별시 성북구 안암로 145, 고려대학교안암캠퍼스 타이거프라자동 2층 (안암동5가)",202789.692329185,454049.551940162,113.2,중저가,37.58874993020133,127.02948334277072,0.2958231564464103,0.0,1.0,4.0,52.366666666666674,3695572.0
78,78.0,78.0,78.0,이디야커피,2013-12-20,영업/정상,,서울특별시 종로구 낙원동 45-3,"서울특별시 종로구 삼일대로 436-1, 1층 (낙원동)",198872.949115346,452367.004193038,22.51,중저가,37.57359366759273,126.98513960002664,0.3772993841860835,1.0,0.0,1.0,82.53333333333333,5140681.0
79,79.0,79.0,79.0,이디야 중랑묵동점,2023-05-12,영업/정상,,서울특별시 중랑구 묵동 171-9,"서울특별시 중랑구 공릉로 42, 1층 (묵동)",206843.745868701,456900.039089933,72.6,중저가,37.61441139450294,127.07541084849602,0.44378028344865,4.0,1.0,3.0,46.333333333333336,1788043.0
80,80.0,80.0,80.0,이디야커피 서울간호대점,2024-07-25,영업/정상,,서울특별시 서대문구 홍제동 279-14,"서울특별시 서대문구 간호대로 8, 1층 (홍제동)",195408.789280796,454934.032813234,47.0,중저가,37.59671122439825,126.9459090520274,1.0043318984439644,0.0,0.0,0.0,38.18888888888889,1644619.0
81,81.0,81.0,81.0,이디야 커피 송파 와이즈더샵점,2024-07-26,영업/정상,,서울특별시 송파구 장지동 895 송파와이즈더샵,"서울특별시 송파구 위례광장로 270, G-108호 (장지동, 송파와이즈더샵)",212609.377447603,441586.029967716,53.18,중저가,37.47637329714055,127.1404516282882,1.2791490457781094,0.0,0.0,0.0,30.91111111111111,3972990.0
82,83.0,83.0,83.0,창동현대타운이디야점,2015-08-10,폐업,2023-11-03,서울특별시 도봉구 창동 657-142,"서울특별시 도봉구 도봉로114길 22, 1층 (창동)",203079.403480819,460555.552646723,118.22,중저가,37.647366821830936,127.03279033998648,0.2760370817514146,7.0,1.0,2.0,44.73333333333333,6562361.0
83,84.0,84.0,84.0,이디야커피(한양대점),2009-09-14,폐업,2023-12-29,서울특별시 성동구 행당동 14-1 (지상1층),"서울특별시 성동구 사근동길 4 (행당동,(지상1층))",203601.487016216,450852.830007464,26.0,중저가,37.55994511711901,127.0386592914146,0.2666142265319779,2.0,0.0,0.0,62.02222222222223,2489186.0
84,85.0,85.0,85.0,이디야커피 삼성중앙역점,2022-04-07,영업/정상,,서울특별시 강남구 삼성동 71-15 우창빌딩,"서울특별시 강남구 삼성로 608, 우창빌딩 지상1층 (삼성동)",204638.735,445739.79,136.0,중저가,37.51387243468601,127.0503669441784,0.2292193704177434,1.0,0.0,1.0,46.53333333333333,9091416.0
85,86.0,86.0,86.0,이디야,20120409,영업/정상,,서울특별시 광진구 자양동 8-22번지 ,"서울특별시 광진구 아차산로30길 8, 2층 (자양동)",205905.381939151,448686.69670371,160.7,중저가,37.54041674317193,127.06471735193168,0.375852301881063,1.0,1.0,1.0,40.75555555555556,1723747.0
86,87.0,87.0,87.0,(주)이디야경희대캠퍼스점,20180104,영업/정상,,서울특별시 동대문구 회기동 1-5번지 ,"서울특별시 동대문구 경희대로 26, 호텔관광대학 1층 (회기동)",204469.209049094,454934.047367752,142.1,중저가,37.59671259198984,127.04850461982858,0.8388161908445632,0.0,0.0,0.0,36.16666666666666,1063149.0
87,88.0,88.0,88.0,EDIYA COFFEE 이디야커피 장위중앙점,2018-07-05,영업/정상,,서울특별시 성북구 장위동 230-112,"서울특별시 성북구 장위로 35, 1층 (장위동)",203530.809166139,456903.594601664,120.0,중저가,37.61446187599637,127.0378879852847,0.6943629707860424,1.0,0.0,0.0,36.55555555555556,3006617.0
88,89.0,89.0,89.0,이디야창동중앙점,2012-03-08,폐업,2023-02-21,서울특별시 도봉구 창동 74-5 외 2필지 1층,"서울특별시 도봉구 노해로63길 78, 1층 (창동, 외 2필지)",204023.562241856,461147.294725779,31.92,중저가,37.6526946899203,127.0434919722262,0.3920945280728705,2.0,0.0,2.0,42.04444444444444,1597250.0
89,90.0,90.0,90.0,이디야,2015-08-10,폐업,2023-10-25,서울특별시 은평구 불광동 357-14 1층,"서울특별시 은평구 연서로 275, 1층 (불광동)",193296.847623863,457624.618620068,56.0,중저가,37.62093979267868,126.92196964509016,0.2154744718411123,0.0,0.0,0.0,49.1888888888889,613312.0
90,91.0,91.0,91.0,이디야성수2가점,20130731,폐업,20220819,서울특별시 성동구 성수동2가 561-1 승재빌딩 지상1층,"서울특별시 성동구 성덕정길 106, 지상1층 (성수동2가, 승재빌딩)",204799.750078838,448317.872400495,99.0,중저가,37.53710000256001,127.0522047875105,0.5977876657746503,2.0,0.0,0.0,51.66666666666666,2383726.0
91,92.0,92.0,92.0,이디야 성산중앙점,2017-09-04,영업/정상,,서울특별시 마포구 성산동 228-1,"서울특별시 마포구 성미산로 78 (성산동, 1층일부)",192567.210922042,450896.344372486,80.0,중저가,37.56031347267184,126.91377378799444,0.6106206394377476,0.0,0.0,0.0,28.6,2440881.0
92,93.0,93.0,93.0,이디야신월7동점,20150529,영업/정상,,서울특별시 양천구 신월동 932-1번지 지상1층 ,"서울특별시 양천구 지양로 79, 지상1층 (신월동)",185164.274611167,446701.013450812,66.0,중저가,37.52242408555305,126.83007287719826,1.8173276828616247,1.0,0.0,0.0,47.12222222222224,248846.0
93,94.0,94.0,94.0,이디야 신정서부점,20180530,영업/정상,,서울특별시 양천구 신정동 761-21 ,"서울특별시 양천구 신정로11길 50-15, 지상1층 (신정동)",185638.316895237,445567.662820864,82.5,중저가,37.51222021323941,126.83545757533022,1.740735701464954,1.0,0.0,0.0,34.88888888888889,358754.0
94,95.0,95.0,95.0,이디야커피목동신목점,20140801,영업/정상,,서울특별시 양천구 목동 758-1번지 강산아파트제1동지하1층101호 ,"서울특별시 양천구 목동중앙로 85, 지하1층 101호 (목동, 강산아파트제1동)",188569.533100846,448315.673705478,85.11,중저가,37.53702073140286,126.8685686497845,1.269794970518231,1.0,0.0,0.0,28.6,6507633.0
95,96.0,96.0,96.0,이디야커피 등촌중앙점,2019-12-05,폐업,2024-08-20,서울특별시 강서구 등촌동 566-26 컴스웨이빌딩 1층,"서울특별시 강서구 등촌로 67, 컴스웨이빌딩 1층 (등촌동)",187836.091897907,448212.63908177,92.16,중저가,37.536082968958986,126.86027189852136,1.1765160244396622,1.0,0.0,1.0,28.6,6584223.0
96,97.0,97.0,97.0,이디야 마곡역점,2017-05-08,폐업,2023-07-27,서울특별시 강서구 마곡동 773-3 힐스테이트에코동익 (지상 1층) 상가-131호,"서울특별시 강서구 공항대로 195, 1층 상가-131호 (마곡동, 가양 1동 힐스테이트에코동익)",184835.390794256,450858.680912443,70.58,중저가,37.55987881541703,126.82626627044196,0.1147641781089959,4.0,0.0,4.0,28.6,44150.0
97,98.0,98.0,98.0,이디야 화곡남부시장점,2017-04-04,폐업,2024-07-08,서울특별시 강서구 화곡동 830-1 (지상 1층),"서울특별시 강서구 등촌로5길 80, 1층 (화곡동, 4동)",187464.403178638,447877.710664426,66.0,중저가,37.53306029387261,126.85607225141558,0.8671234396292156,1.0,0.0,0.0,28.6,6227217.0
98,99.0,99.0,99.0,이디야 우장산역점,2014-11-18,폐업,2023-02-10,서울특별시 강서구 화곡동 1006-1 (지상 1층),"서울특별시 강서구 강서로45길 5, 1층 (화곡동, 3동)",185423.233970186,449519.629161816,46.0,중저가,37.5478236623272,126.83294610929522,0.3430884404843001,2.0,0.0,3.0,34.24444444444445,269232.0
99,100.0,100.0,100.0,이디야영등포아크로타워점,20180402,영업/정상,,서울특별시 영등포구 영등포동7가 145-8번지 아크로타워 스퀘어 상가1동 1층 2호 2-1호 ,"서울특별시 영등포구 국회대로54길 10, 상가1동 1층 2,2-1호 (영등포동7가, 아크로타워 스퀘어)",191714.388435407,446839.517754104,59.93,중저가,37.523754497031184,126.90416769560396,0.2161326719835783,1.0,1.0,0.0,55.45555555555556,6791570.0
100,101.0,101.0,101.0,이디야커피 고덕래미안힐스점,2017-12-26,폐업,2023-05-30,서울특별시 강동구 고덕동 688 래미안힐스테이트고덕,"서울특별시 강동구 아리수로50길 50, 149~151호 (고덕동, 래미안힐스테이트고덕)",212926.089912845,450751.524331915,68.0,중저가,37.55894942369064,127.14419246197698,0.8681361768451429,1.0,0.0,0.0,55.45555555555556,13334438.0
101,102.0,102.0,102.0,이디야커피 보훈병원점,20140818,영업/정상,,서울특별시 강동구 둔촌동 556 암펠로스타워 105호,"서울특별시 강동구 명일로 110, 105호 (둔촌동, 암펠로스타워)",212577.040818432,447411.826077751,101.52,중저가,37.52886390420488,127.1401851133207,0.4050817740034084,1.0,0.0,0.0,45.51111111111111,14678298.0
102,103.0,103.0,103.0,이디야 도산사거리점,2015-09-14,영업/정상,,서울특별시 강남구 논현동 98-12 청호불교문화원 나동1층107호,"서울특별시 강남구 언주로148길 14, 나동 지상1층 107호 (논현동, 청호불교문화원)",203121.203642767,446464.379990564,71.47,중저가,37.52040723255082,127.0332052190074,0.5549640932372909,2.0,0.0,2.0,55.45555555555556,3514646.0
103,104.0,104.0,104.0,이디야커피 강동신명초교점,20211026,영업/정상,,서울특별시 강동구 길동 92 길동신동아아파트 ,"서울특별시 강동구 명일로 260, 길동신동아아파트 상가동 1층 106,107,116,117호 (길동)",212967.198454297,448814.972105093,99.31,중저가,37.54150074327468,127.14462368292531,0.522049150516583,1.0,0.0,0.0,55.45555555555556,2166509.0
104,105.0,105.0,105.0,이디야 암사3동점,2020-01-29,폐업,2023-08-02,서울특별시 강동구 암사동 413-3 프라이어팰리스,"서울특별시 강동구 고덕로 140, 프라이어팰리스 1층 101호 (암사동)",212366.840633987,450251.758832252,44.70,중저가,37.55445423273565,127.13785464721752,0.5344241759451821,0.0,0.0,1.0,55.45555555555556,5240525.0
105,106.0,106.0,106.0,이디야커피 길동역점,20111123,영업/정상,,서울특별시 강동구 길동 389-2번지 ,"서울특별시 강동구 양재대로 1471, 1층 (길동)",212251.603548884,448345.727351302,58.74,중저가,37.53728262682475,127.13651886843688,0.2809336201970401,3.0,0.0,4.0,55.45555555555556,1022806.0
106,107.0,107.0,107.0,이디야(EDIYA COFFEE),20150206,영업/정상,,서울특별시 강동구 명일동 347-3번지 ,서울특별시 강동구 상암로 210 (명일동),212813.752460253,449347.889402584,155.88,중저가,37.54630440418028,127.14289667793872,0.0369219534014994,3.0,0.0,2.0,55.45555555555556,2762074.0
107,108.0,108.0,108.0,이디야 길동중앙점,2014-10-10,영업/정상,,서울특별시 강동구 길동 252-92 1층,"서울특별시 강동구 명일로 200, 1층 (길동)",212828.791870233,448263.618244733,40.00,중저가,37.5365350262217,127.14304801790288,0.3014023182077662,1.0,0.0,1.0,55.45555555555556,13373101.0
108,109.0,109.0,109.0,이디야커피 천호현대점,2009-12-28,영업/정상,,서울특별시 강동구 천호동 432-2 101호,"서울특별시 강동구 올림픽로 665 (천호동,101호)",210864.001866589,448759.642221575,29.70,중저가,37.54102924885122,127.12082497568328,0.3519067329278662,3.0,1.0,7.0,55.45555555555556,5284477.0
109,110.0,110.0,110.0,이디야,20151202,영업/정상,,서울특별시 강동구 천호동 454-15번지 ,서울특별시 강동구 천호대로 1027 (천호동),211096.952458378,448450.575807613,64.00,중저가,37.53824183284689,127.12345617839078,0.0406390613844184,4.0,2.0,11.0,55.45555555555556,5284477.0
110,111.0,111.0,111.0,이디야커피 암사중앙점,20170615,영업/정상,,서울특별시 강동구 암사동 479-13번지 ,"서울특별시 강동구 암사길 50, 근린생활시설동 105호 (암사동)",211847.584869939,449932.798379936,80.99,중저가,37.55158721926501,127.1319730774644,0.3383611550013433,0.0,0.0,0.0,82.53333333333333,5240525.0
111,112.0,112.0,112.0,이디야 트윈트리타워점,2018-04-24,폐업,2023-08-28,서울특별시 종로구 중학동 14 트윈 트리 빌딩,"서울특별시 종로구 율곡로 6, 트윈 트리 빌딩 제에이동 제지2층 제비201호,제비203호,제비204(12호)호 (중학동)",198176.159239663,452574.67151361,96.56,중저가,37.57546355894783,126.9772514120955,0.3579963738688673,1.0,0.0,6.0,37.3,1684450.0
112,113.0,113.0,113.0,이디야커피 우면동점,2018-07-26,영업/정상,,서울특별시 서초구 우면동 2-8 1층,"서울특별시 서초구 바우뫼로 20, 1층 (우면동)",202167.64879504,440869.403699118,130.58,중저가,37.469999193487865,127.02240266998665,1.7443883036390768,1.0,0.0,0.0,55.45555555555556,1738027.0
113,114.0,114.0,114.0,이디야커피 (올림픽북문점),20150521,영업/정상,,서울특별시 강동구 성내동 448-7번지 ,서울특별시 강동구 성안로 7 (성내동),211324.022842093,446930.379410235,162.72,중저가,37.52454224539331,127.12600209923994,0.7783936375894194,1.0,0.0,3.0,55.45555555555556,4574000.0
114,115.0,115.0,115.0,이디야강동구청점,20060616,영업/정상,,서울특별시 강동구 성내동 556-2 청일 베르네,"서울특별시 강동구 성내로6길 20, 청일 베르네 1층 104,105호 (성내동, 청일 베르네)",210744.81545375,447427.034954557,49.03,중저가,37.529023959755264,127.1194570047748,0.2818219770544806,3.0,0.0,2.0,55.45555555555556,7018784.0
115,116.0,116.0,116.0,이디야커피(EDIYA COFFEE),20100601,영업/정상,,서울특별시 강동구 천호동 450번지 강동쌍떼빌 제엘106호 ,"서울특별시 강동구 천호대로 1065 (천호동,강동쌍떼빌 제엘106호)",211457.045549012,448314.585474708,42.00,중저가,37.53701219579274,127.1275283841358,0.2699781049898963,2.0,0.0,3.0,55.45555555555556,1378426.0
116,117.0,117.0,117.0,이디야 명일역점,20220221,영업/정상,,서울특별시 강동구 명일동 325-11 명일메가타운 ,"서울특별시 강동구 구천면로 424, 명일메가타운 113,114호 (명일동)",212793.83711847,449793.19620496,66.00,중저가,37.550316842426746,127.1426790397406,0.1091239364290213,4.0,1.0,2.0,138.7,5894190.0
117,118.0,118.0,118.0,이디야커피숍 명동중앙2호점,2016-04-22,폐업,2023-02-14,서울특별시 중구 충무로2가 12-14 1층,"서울특별시 중구 명동8가길 37, 1층 (충무로2가)",198793.839451057,451072.1392557,50.49,중저가,37.56192698016944,126.98424632265976,0.1784649096676681,1.0,2.0,23.0,55.45555555555556,3084116.0
118,119.0,119.0,119.0,이디야커피 암사역점,2010-09-28,폐업,2023-07-24,서울특별시 강동구 암사동 501-1 암사501타워103호,"서울특별시 강동구 올림픽로 782 (암사동,암사501타워103호)",211252.499429603,449861.448298428,39.60,중저가,37.55095177574945,127.1252376273647,0.2599037144714924,2.0,0.0,1.0,55.45555555555556,5486109.0
119,120.0,120.0,120.0,이디야천호역점,2011-08-17,폐업,2023-12-28,서울특별시 강동구 성내동 64-13 브라운스톤 1층 제에프102-1호,서울특별시 강동구 천호대로 1006 (성내동),210871.293674366,448421.092547965,43.87,중저가,37.53797886250759,127.12090250192549,0.229895336179907,3.0,2.0,8.0,55.45555555555556,5284477.0
120,121.0,121.0,121.0,이디야 커피,20191108,영업/정상,,서울특별시 강동구 천호동 427-3 천호엘크루주상복합,"서울특별시 강동구 올림픽로 660, 1층 105호 (천호동, 천호엘크루주상복합)",210935.038615054,448663.480515858,67.10,중저가,37.54016200661259,127.1216273360373,0.2326834388401077,5.0,3.0,12.0,36.55555555555556,5284477.0
121,122.0,122.0,122.0,이디야 미아역점,20101025,영업/정상,,서울특별시 강북구 미아동 207-3 (도봉로207)(지상1층),"서울특별시 강북구 도봉로 207 (미아동,(도봉로207)(지상1층))",202176.190112117,458307.022168741,41.95,중저가,37.62711058564855,127.0225493774391,0.3227572034620609,1.0,0.0,2.0,55.45555555555556,7220909.0
122,123.0,123.0,123.0,이디야커피,20190326,영업/정상,,서울특별시 강동구 고덕동 225 102호,"서울특별시 강동구 동남로82길 121, 1층 (고덕동)",214395.085383506,450916.226783841,73.63,중저가,37.560411703113495,127.16082137410456,0.8383339100322422,0.0,0.0,1.0,55.45555555555556,787083.0
123,124.0,124.0,124.0,이디야 고덕교차로점,20220414,영업/정상,,서울특별시 강동구 강일동 727 대한연세요양원,"서울특별시 강동구 고덕로 421, 대한연세요양원 1층 (강일동)",215176.795646392,450585.301230896,112.00,중저가,37.55741762650427,127.16966191370112,0.5331655224296106,0.0,0.0,2.0,32.56666666666667,787083.0
124,125.0,125.0,125.0,이디야커피 잠실월드점,20140207,폐업,20220518,서울특별시 송파구 신천동 11-4 잠실푸르지오월드마크 지상1층 129호,"서울특별시 송파구 올림픽로35가길 9, 지상1층 129호 (신천동, 잠실푸르지오월드마크)",209087.122362019,446139.152554604,45.14,중저가,37.51743791643555,127.10068733357092,0.3449908361651592,1.0,0.0,4.0,46.7,168012.0
125,126.0,126.0,126.0,이디야커피 압구정로데오역점,20221017,영업/정상,,서울특별시 강남구 신사동 661-14,"서울특별시 강남구 선릉로161길 20, 지상1층 102호 (신사동)",203362.470743292,447255.500059519,56.58,중저가,37.52753435348755,127.035937969088,0.8060136802659895,4.0,0.0,4.0,26.266666666666666,465419.0
126,127.0,127.0,127.0,이디야 도봉산점,2019-11-14,영업/정상,,서울특별시 도봉구 도봉동 282-344 1층,"서울특별시 도봉구 도봉산길 18, 1층 (도봉동)",203782.531691709,465014.07337341,148.00,중저가,37.68753430367901,127.04078031591976,0.5441917490536549,1.0,0.0,1.0,70.4,6200191.0
127,128.0,128.0,128.0,이디야커피(강남도산점),20180831,영업/정상,,서울특별시 강남구 신사동 628,"서울특별시 강남구 도산대로37길 20, 1층 (신사동)",202713.114630634,446672.375774815,81.86,중저가,37.522282526102586,127.0285896867436,0.1422617245251159,1.0,0.0,2.0,46.333333333333336,2142789.0
128,129.0,129.0,129.0,이디야커피,20221005,영업/정상,,서울특별시 중랑구 상봉동 268-33,"서울특별시 중랑구 상봉중앙로 36, 1층 (상봉동)",207678.845384572,455332.876999732,86.00,중저가,37.60028502525275,127.08485302072332,0.4048291569030224,0.0,0.0,0.0,45.63333333333334,4668270.0
129,130.0,130.0,130.0,이디야 서대문구청점,20210820,영업/정상,,서울특별시 서대문구 연희동 163-31,"서울특별시 서대문구 연희로 237, 1층 (연희동)",194250.026987502,452883.58998981,76.84,중저가,37.578230458483965,126.93280409647204,1.5243194527118522,0.0,0.0,0.0,55.45555555555556,3902785.0
130,131.0,131.0,131.0,이디야커피 강동성내점,20220706,영업/정상,,서울특별시 강동구 성내동 518,"서울특별시 강동구 풍성로 162, 1층 (성내동)",211408.519666032,447589.706238873,85.91,중저가,37.5304816946425,127.12696814985338,0.4531209225287293,1.0,0.0,0.0,26.266666666666666,2001697.0
131,132.0,132.0,132.0,이디야방학홈플러스점,20191128,폐업,20220405,서울특별시 도봉구 방학동 707-7 홈플러스데스코㈜방학점 E6호,"서울특별시 도봉구 도봉로 678, 홈플러스데스코㈜방학점 2층 E6호 (방학동)",203790.013568785,462495.417040876,18.90,중저가,37.66484189955164,127.04085228035484,1.4555908996062088,3.0,2.0,2.0,42.04444444444444,4993763.0
132,133.0,133.0,133.0,이디야,20131018,폐업,20221222,서울특별시 은평구 진관동 20 은평뉴타운 상림마을 824동1층상가 106호,"서울특별시 은평구 진관3로 70 (진관동, 은평뉴타운 상림마을 824동1층상가)",193103.427054842,459986.856034813,55.55,중저가,37.64222158018368,126.91975625173728,0.5270181494834522,0.0,0.0,1.0,45.63333333333334,1246937.0
133,134.0,134.0,134.0,이디야 이화여대점,2019-08-19,폐업,2024-08-16,서울특별시 서대문구 대현동 54-9 이화빌딩,"서울특별시 서대문구 이화여대길 26, 이화빌딩 2,3층 (대현동)",195167.079408119,450633.914892119,160.00,중저가,37.55796649119775,126.94320077816816,0.3389671813162989,4.0,1.0,7.0,40.93333333333334,445685.0
134,135.0,135.0,135.0,이디야(EDIYA COFFEE),20130401,폐업,20220613,서울특별시 서초구 반포동 978 1층 L동 11호,"서울특별시 서초구 신반포로 50, L동 1층 11호 (반포동)",199059.644180682,444396.094036908,49.39,중저가,37.50177655192494,126.98726388857494,0.6532595901315904,0.0,0.0,1.0,47.12222222222224,95871.0
135,136.0,136.0,136.0,이디야 구로디지털점,20130424,폐업,20220616,서울특별시 구로구 구로동 1278-1 두산위브상가제102호 102호,"서울특별시 구로구 디지털로31길 81, 102호 (구로동, 두산위브상가제102호)",190310.335979497,442687.462340966,30.00,중저가,37.4863308619125,126.88833948428992,0.1039716431650099,4.0,0.0,1.0,60.1,9248055.0
136,137.0,137.0,137.0,이디야,20120109,폐업,20220616,서울특별시 마포구 공덕동 463,"서울특별시 마포구 마포대로 173 (공덕동, 마포현대하이엘 1층 102호)",195900.709427813,449728.629171661,39.47,중저가,37.54981356156123,126.95150885926336,0.3609894481212313,1.0,0.0,3.0,46.333333333333336,446712.0
137,138.0,138.0,138.0,이디야커피 먹골역점,20200417,영업/정상,,서울특별시 중랑구 묵동 244-141,"서울특별시 중랑구 동일로157길 13, 1층 (묵동)",206720.325272757,456379.842224473,83.82,중저가,37.60972542198945,127.07400823626074,0.3504153816230604,2.0,1.0,0.0,84.78888888888889,7616573.0
138,139.0,139.0,139.0,이디야커피 명동중앙점,20220720,영업/정상,,서울특별시 중구 을지로2가 199-40 명동아르누보센텀,"서울특별시 중구 명동7길 21, 명동아르누보센텀 1층 121호 (을지로2가)",198505.140766586,451381.113105659,33.15,중저가,37.56471035728418,126.98097810987493,0.1461375269901339,4.0,2.0,39.0,33.922222222222224,3421674.0
139,140.0,140.0,140.0,이디야 면목경남아너스빌점,20220906,영업/정상,,서울특별시 중랑구 면목동 646-3,"서울특별시 중랑구 면목로27길 92, 1층 (면목동)",207044.704821363,452444.499410616,73.54,중저가,37.57426621822903,127.0776444880705,0.830037865956935,0.0,1.0,0.0,34.88888888888889,4239934.0
140,141.0,141.0,141.0,이디야 남부지방법원점,20221021,영업/정상,,서울특별시 양천구 신정동 1014-5 SM엘루이아파트 1층 102호,"서울특별시 양천구 은행정로4길 25, 1층 102호 (신정동, SM엘루이아파트)",187782.99493463,446595.849211401,63.66,중저가,37.52151512206281,126.85969816247768,0.495225235284378,2.0,0.0,2.0,33.922222222222224,987977.0
141,142.0,142.0,142.0,이디야 면목경남아너스빌점,20210707,폐업,20220906,서울특별시 중랑구 면목동 646-3,"서울특별시 중랑구 면목로27길 92, 1층 (면목동)",207044.704821363,452444.499410616,73.54,중저가,37.57426621822903,127.0776444880705,0.830037865956935,0.0,1.0,0.0,26.266666666666666,4239934.0
142,143.0,143.0,143.0,이디야커피방학역점,20140902,영업/정상,,서울특별시 도봉구 방학동 652-21 지상1층,"서울특별시 도봉구 도봉로153길 15, 지상1층 (방학동)",203684.129286803,463046.227184724,64.24,중저가,37.66980497254982,127.0396549373038,1.547119955071049,1.0,0.0,0.0,69.35555555555555,170399.0
143,144.0,144.0,144.0,이디야커피,20150302,폐업,20220721,서울특별시 강남구 대치동 889-68,"서울특별시 강남구 선릉로86길 15, 지상1층 105호 (대치동)",204424.696602366,444593.605336523,40.95,중저가,37.50354637972157,127.04793917110914,0.8313986724089887,3.0,2.0,5.0,28.6,21670795.0
144,145.0,145.0,145.0,이디야커피(강서한강자이),20130819,영업/정상,,서울특별시 강서구 가양동 1498-0 강서한강자이타워 (지상 1층) B동 108호,"서울특별시 강서구 양천로 401, B동 1층 108호 (가양동, 1동 강서한강자이타워)",186501.233192961,451485.251875922,68.08,중저가,37.56555014784177,126.84510847408976,1.455299789679357,2.0,0.0,0.0,70.85555555555555,1339129.0
145,146.0,146.0,146.0,이디야(시흥대로점),20130326,폐업,20220412,서울특별시 금천구 독산동 967-10,"서울특별시 금천구 시흥대로 476, 지상1층 (독산동)",191000.581021467,441543.623608127,83.16,중저가,37.47603189977719,126.89615801371625,1.128165551964973,1.0,0.0,0.0,26.266666666666666,1725290.0
146,147.0,147.0,147.0,(주)이디야 도봉구청점,20130704,폐업,20221108,"서울특별시 도봉구 방학동 716-5 ESA아파트상가 108,109호","서울특별시 도봉구 도봉로150길 43, 상가동 지상1층 108,109호 (방학동, ESA아파트)",203953.833720651,462675.950480622,55.10,중저가,37.66646777798494,127.04270995155194,1.26545672616934,2.0,1.0,2.0,28.6,5900764.0
147,148.0,148.0,148.0,이디야커피 강서초교점,20150116,영업/정상,,서울특별시 양천구 신월동 514-2 지상1층,"서울특별시 양천구 오목로 48, 지상1층 (신월동)",186046.676672471,446653.034652049,66.00,중저가,37.522005623118176,126.84005570784532,1.2649574361374274,2.0,0.0,0.0,55.45555555555556,4043917.0
148,149.0,149.0,149.0,이디야(강동SK허브점),20100708,폐업,20220401,서울특별시 강동구 길동 445-1 (101호),"서울특별시 강동구 천호대로 1107 (길동,(101호))",211855.343463796,448152.725612274,39.60,중저가,37.53554884873917,127.13203229921264,0.1891574529956368,2.0,1.0,6.0,64.44444444444444,12954086.0
149,150.0,150.0,150.0,이디야커피 학동제마점,20220725,영업/정상,,서울특별시 강남구 논현동 214-22,"서울특별시 강남구 학동로34길 22, 지상1층 (논현동)",202905.300453538,445657.623200077,66.00,중저가,37.51313907546553,127.03075981672316,0.157044445882925,0.0,2.0,2.0,47.12222222222224,123701.0
150,151.0,151.0,151.0,개봉북부역점 이디야커피,20160829,폐업,20220427,서울특별시 구로구 개봉동 178-13,"서울특별시 구로구 경인로40길 12, 1층 (개봉동)",187468.900421511,443794.942617374,65.00,중저가,37.49627487336565,126.85619305498814,1.8687215020723933,5.0,1.0,2.0,34.24444444444445,1732964.0
151,152.0,152.0,152.0,이디야영등포점,2021-07-16,영업/정상,,서울특별시 영등포구 영등포동3가 9-4,"서울특별시 영등포구 영중로 16-1, 1,2층 (영등포동3가)",191635.027126389,446187.671810353,80.99,중저가,37.5178806809528,126.90327739908231,0.5276404129086637,2.0,2.0,10.0,34.24444444444445,1120860.0
152,153.0,153.0,153.0,이디야 서여의도점,2021-09-07,영업/정상,,서울특별시 영등포구 여의도동 14-3 아이비피아빌딩,"서울특별시 영등포구 국회대로72길 4, 아이비피아빌딩 1층 2호 (여의도동)",192855.846689734,447565.580756999,173.33,중저가,37.53030589947372,126.9170732547538,1.1714198751833291,3.0,0.0,8.0,26.58888888888889,1740491.0
153,154.0,154.0,154.0,이디야커피흑석역점,20221025,영업/정상,,서울특별시 동작구 흑석동 9-89,"서울특별시 동작구 현충로 100-1, 2층 (흑석동)",196812.464844337,445047.949634007,186.00,중저가,37.507644579102966,126.96184734914678,1.3639449961140444,0.0,0.0,0.0,58.21111111111111,337454.0
154,155.0,155.0,155.0,이디야 동대문역점,20190529,영업/정상,,서울특별시 종로구 종로6가 62-2 야드인빌딩 2층 ,"서울특별시 종로구 율곡로 286, 야드인빌딩 2층 (종로6가)",200647.155876643,452171.060783025,190.39,중저가,37.57182882820192,127.00522344503992,0.3057008974749363,2.0,1.0,0.0,58.21111111111111,4110785.0
155,156.0,156.0,156.0,이디야 커피,20190201,영업/정상,,서울특별시 종로구 종로5가 182-5 ,"서울특별시 종로구 동호로 406-1, 1층 (종로5가)",200129.775227347,452034.69521884,74.91,중저가,37.57060037297596,126.99936682794264,0.2291965809324618,2.0,0.0,3.0,82.53333333333333,2163684.0
157,158.0,158.0,158.0,이디야,20190902,영업/정상,,서울특별시 종로구 명륜2가 209-2번지 ,"서울특별시 종로구 성균관로 8, 1층 (명륜2가)",199783.918141466,453483.532108771,84.18,중저가,37.58365416311195,126.99545133171397,0.5857196891868761,2.0,0.0,7.0,82.53333333333333,2318907.0
160,161.0,161.0,161.0,이디야 종로4가점,20160218,영업/정상,,서울특별시 종로구 인의동 19 1층 ,"서울특별시 종로구 김상옥로 1, 1층 (인의동)",199745.16185806,452357.42129588,65.41,중저가,37.57350804212058,126.99501304259915,0.3559186876526793,0.0,0.0,1.0,44.73333333333333,4094772.0
161,162.0,162.0,162.0,이디야커피,20080429,영업/정상,,"서울특별시 종로구 숭인동 1054번지 지상1,2층 ","서울특별시 종로구 숭인동길 6 (숭인동,지상1,2층)",201838.198011408,452552.283687383,42.53,중저가,37.5752620756227,127.01870663214856,0.2310614697943628,1.0,2.0,3.0,84.78888888888889,1768964.0
164,165.0,165.0,165.0,이디야 동묘역점,2013-02-13,폐업,2024-08-13,서울특별시 종로구 숭인동 284,"서울특별시 종로구 종로 354, 1층 (숭인동)",201414.046576254,452312.837247358,59.50,중저가,37.57310541248543,127.01390469505522,0.2351364513294065,0.0,0.0,2.0,84.78888888888889,2388794.0
165,166.0,166.0,166.0,이디야 탑골공원점,20140630,영업/정상,,서울특별시 종로구 낙원동 205번지 ,"서울특별시 종로구 수표로 109-1, 1층 (낙원동)",198977.142634889,452080.59509012,39.68,중저가,37.57101328590438,126.9863194941486,0.4407939343086032,6.0,1.0,9.0,84.78888888888889,5140681.0
166,167.0,167.0,167.0,이디야,2011-10-31,폐업,2023-07-24,서울특별시 종로구 종로1가 24 르메이에르 종로타운 107-2,"서울특별시 종로구 종로 19, 1층 107-2호 (종로1가)",198150.300374121,452019.212642931,30.00,중저가,37.57045889074497,126.97696013266716,0.1067383131472854,3.0,1.0,11.0,53.08888888888889,5092817.0
168,169.0,169.0,169.0,이디야커피 북촌마을점,20200519,영업/정상,,서울특별시 종로구 화동 138-6번지 ,"서울특별시 종로구 북촌로5길 39, 2층 (화동)",198403.215745169,453004.756340579,90.84,중저가,37.579339003929256,126.97982077873638,0.492058530762963,0.0,0.0,0.0,45.63333333333334,1820552.0
170,171.0,171.0,171.0,이디야(동대문역점),20091125,폐업,20190528,서울특별시 종로구 종로6가 83번지 ,서울특별시 종로구 율곡로 290-2 (종로6가),200685.734152413,452136.400405769,23.10,중저가,37.57151651725281,127.00566011102477,0.3347368949404597,2.0,1.0,0.0,84.78888888888889,4110785.0
171,172.0,172.0,172.0,이디야소공점,20021025,폐업,20180718,서울특별시 중구 남대문로2가 118-0번지 (1층) ,"서울특별시 중구 남대문로 63 (남대문로2가,(1층))",198297.833546642,451193.870359394,18.60,중저가,37.56302294687949,126.97863212416652,0.2803080128887207,3.0,2.0,27.0,63.5,4543777.0
172,174.0,174.0,174.0,이디야,20040114,폐업,20190521,서울특별시 중구 남창동 46-27번지 (지상2층) ,"서울특별시 중구 퇴계로 55 (남창동,(지상2층))",198006.561974679,450734.150359974,89.26,중저가,37.55888031449543,126.97533668873668,0.2037616577054857,3.0,2.0,5.0,84.78888888888889,286457.0
174,176.0,176.0,176.0,이디야커피 IBK점,20090226,폐업,20200722,서울특별시 중구 을지로2가 50 (지상1층) ,"서울특별시 중구 을지로 79 (을지로2가,(지상1층))",198743.086421493,451579.913748821,86.32,중저가,37.56650190038184,126.98367097395597,0.2778240161868283,4.0,2.0,18.0,84.78888888888889,3421674.0
175,177.0,177.0,177.0,이디야 IBK본점,20211202,영업/정상,,서울특별시 중구 을지로2가 50 ,"서울특별시 중구 을지로 79, 지하1층 (을지로2가)",198743.086421493,451579.913748821,170.00,중저가,37.56650190038184,126.98367097395597,0.2778240161868283,4.0,2.0,18.0,58.21111111111111,3421674.0
176,178.0,178.0,178.0,이디야 시청점,20200414,영업/정상,,서울특별시 중구 무교동 25-1번지 원창빌딩 ,"서울특별시 중구 세종대로20길 23, 원창빌딩 1층 101-A호 (무교동)",198053.591672742,451652.397672222,66.00,중저가,37.56715372551143,126.97586644289464,0.1964748546333289,1.0,0.0,14.0,58.21111111111111,262038.0
177,179.0,179.0,179.0,이디야커피와 비밀베이커리,2008-06-26,영업/정상,,서울특별시 중구 을지로6가 18-37,"서울특별시 중구 을지로43길 38, 지상1층 (을지로6가)",200616.304949685,451713.374319666,66.00,중저가,37.56770514694643,127.0048738768168,0.4241078450621295,4.0,1.0,8.0,44.73333333333333,4110785.0
178,180.0,180.0,180.0,이디야 청구역점,2014-04-09,폐업,2024-04-01,서울특별시 중구 신당동 309-18 1층,"서울특별시 중구 다산로 181-2, 1층 (신당동)",201099.759440018,450833.306115568,60.00,중저가,37.55977541344033,127.010344903525,0.3172688605136953,1.0,0.0,1.0,63.5,2537980.0
179,181.0,181.0,181.0,이디야 신당중앙점,20140310,영업/정상,,서울특별시 중구 황학동 2477번지 ,"서울특별시 중구 퇴계로 449-8, 1,2층 (황학동)",201898.470565007,451485.205112622,73.00,중저가,37.56564770905752,127.01938626371155,0.0645998867544737,0.0,0.0,1.0,84.78888888888889,9123950.0
180,182.0,182.0,182.0,이디야(회현SK리더스점),20111101,영업/정상,,서울특별시 중구 회현동1가 206번지 ,"서울특별시 중구 퇴계로 72, 1층 104호 (회현동1가)",198219.475276246,450761.443791768,29.95,중저가,37.55912667622506,126.97774632214926,0.0312542524281428,2.0,2.0,9.0,44.73333333333333,286457.0
181,183.0,183.0,183.0,이디야 다동점,20140728,영업/정상,,서울특별시 중구 다동 92번지 1층 108호 ,"서울특별시 중구 다동길 46, 1층 108호 (다동)",198345.02215434,451737.693394501,42.39,중저가,37.56792281987213,126.97916494849184,0.249019690334389,3.0,0.0,23.0,53.08888888888889,28675584.0
182,184.0,184.0,184.0,이디야 동평화점,20140709,영업/정상,,"서울특별시 중구 신당동 217-92번지 동평화상가 1층 110,111호 ","서울특별시 중구 청계천로 318, 동평화상가  1층 110,111호 (신당동)",201162.482118095,451908.357632586,24.50,중저가,37.569461434699406,127.01105640132256,0.1925424120376289,2.0,1.0,0.0,45.977777777777774,135860.0
183,185.0,185.0,185.0,이디야,20160426,영업/정상,,서울특별시 중구 필동2가 32-19번지 1층 ,"서울특별시 중구 퇴계로 218-5, 1층 (필동2가)",199601.718387574,451011.663908753,39.67,중저가,37.56138286347879,126.993390115067,0.0850441558401891,1.0,3.0,6.0,53.08888888888889,6946811.0
184,186.0,186.0,186.0,이디야커피 약수역점,2018-05-23,영업/정상,,서울특별시 중구 신당동 373-70,"서울특별시 중구 동호로 186-13, 1,2층 (신당동)",200958.815664612,450254.293571435,168.55,중저가,37.55455871607082,127.0087490106908,0.1556689133396532,4.0,0.0,4.0,138.7,4131831.0
185,187.0,187.0,187.0,이디야커피동국대점,20090827,영업/정상,,서울특별시 중구 충무로5가 79-2번지 외1필지 (지상1층) ,"서울특별시 중구 서애로 7 (충무로5가,외1필지 (지상1층))",199797.596510995,451013.687085472,24.00,중저가,37.561401169622734,126.9956070905852,0.1145875712957104,0.0,3.0,1.0,63.5,6946811.0
186,188.0,188.0,188.0,이디야커피,20120920,영업/정상,,서울특별시 중구 필동1가 36-2번지 지상1층 ,서울특별시 중구 퇴계로 188 (필동1가),199272.350281075,450950.170297912,85.95,중저가,37.56082858836878,126.98966234675612,0.3461426337173332,2.0,1.0,8.0,138.7,3084116.0
187,189.0,189.0,189.0,이디야커피 한국은행점,20130620,영업/정상,,서울특별시 중구 남대문로3가 98번지 1층 ,"서울특별시 중구 남대문로 29-2 (남대문로3가, 1층)",198071.746367713,451018.630018879,56.10,중저가,37.56144358938524,126.97607365760685,0.2412097457100041,4.0,3.0,12.0,58.21111111111111,4543777.0
188,190.0,190.0,190.0,이디야커피명동중앙점,20100413,영업/정상,,서울특별시 중구 명동2가 32-17번지 1층 ,"서울특별시 중구 명동10길 20 (명동2가,1층)",198630.43843018,451188.085583623,21.60,중저가,37.56297140421644,126.98239668683702,0.371386548524142,3.0,3.0,37.0,138.7,6915272.0
189,191.0,191.0,191.0,이디야커피,20160222,영업/정상,,서울특별시 중구 오장동 69-29번지 ,"서울특별시 중구 마른내로 109-1, 1층 (오장동)",199942.447719835,451369.885191892,98.61,중저가,37.56461050620323,126.99724647815938,0.2276322514839412,1.0,1.0,4.0,53.08888888888889,2944995.0
190,192.0,192.0,192.0,이디야 충무로3가점,2011-07-04,폐업,2024-01-08,서울특별시 중구 충무로3가 58-21 (1층),"서울특별시 중구 퇴계로27길 31 (충무로3가,(1층))",199157.146978682,451143.211003166,39.76,중저가,37.5625677581772,126.98835823047337,0.3006291586517888,4.0,1.0,10.0,32.74444444444444,3084116.0
191,193.0,193.0,193.0,이디야커피,20190529,영업/정상,,서울특별시 중구 충무로5가 19-7번지 남경빌딩 ,"서울특별시 중구 창경궁로 2, 남경빌딩 1층 (충무로5가)",199815.763550928,451141.619094066,76.95,중저가,37.56255382832292,126.99581266438724,0.1985753725363347,0.0,4.0,1.0,43.41111111111112,862397.0
192,194.0,194.0,194.0,이디야커피,20140319,영업/정상,,서울특별시 용산구 이촌동 301-26번지 1층 ,"서울특별시 용산구 이촌로77길 19, 1층 (이촌동)",197737.246366776,446496.569265877,49.59,중저가,37.520699384332765,126.97230206469564,0.3048757485263036,1.0,0.0,1.0,43.41111111111112,535430.0
193,195.0,195.0,195.0,이디야,20150302,영업/정상,,서울특별시 용산구 원효로1가 39-13번지 지상1층 ,"서울특별시 용산구 원효로 257, 지상1층 (원효로1가)",197209.801664776,448710.784922372,70.35,중저가,37.54064785175638,126.9663270133172,0.4650234253233527,0.0,0.0,1.0,63.37777777777777,6828566.0
194,196.0,196.0,196.0,이디야용문점,20190710,영업/정상,,서울특별시 용산구 원효로2가 88-8번지 ,"서울특별시 용산구 원효로41길 73, 1층 (원효로2가)",196495.479644986,448177.995441343,67.00,중저가,37.53584497047304,126.95824704547093,0.4700870398175337,2.0,0.0,0.0,63.37777777777777,2317322.0
195,197.0,197.0,197.0,이디야커피순천향병원점,20151007,영업/정상,,"서울특별시 용산구 한남동 633-3번지 지상1층 12,13호","서울특별시 용산구 대사관로 72, 지상1층 12,13호 (한남동)",200455.14401596,447866.831310941,57.96,중저가,37.53304822251046,127.00304763358346,0.7590235425411999,1.0,1.0,1.0,60.1,10061716.0
196,199.0,199.0,199.0,이디야IBK고객센터,20120322,영업/정상,,서울특별시 용산구 한남동 707-18번지 외1필지(지상1층) ,"서울특별시 용산구 한남대로 72 (한남동, 707-18외1필지 지상1층)",200550.113887155,448091.764762517,160.57,중저가,37.53507481323329,127.00412225792884,0.5689323254280004,1.0,1.0,1.0,43.41111111111112,2480908.0
197,200.0,200.0,200.0,이디야용산원효점,20200326,영업/정상,,서울특별시 용산구 원효로4가 118-1번지 신정빌딩 ,"서울특별시 용산구 원효로 70, 1층 (원효로4가)",195653.553341643,447808.18379926,77.12,중저가,37.53250935176892,126.94872347834432,0.8134020962418412,0.0,0.0,0.0,63.37777777777777,5249902.0
198,201.0,201.0,201.0,이디야용산후암점,2020-04-16,폐업,2023-11-23,서울특별시 용산구 후암동 244-49,"서울특별시 용산구 후암로 40-2, 1층 (후암동)",197959.836762816,449698.375026945,98.40,중저가,37.54954797329358,126.97481083383524,0.4341991161933498,2.0,0.0,0.0,32.74444444444444,497568.0
199,202.0,202.0,202.0,이디야커피용산청파점,20201028,영업/정상,,서울특별시 용산구 청파동1가 138 새마을금고 ,"서울특별시 용산구 청파로71길 10, 1층 (청파동1가)",197227.44587738,449688.742280304,77.72,중저가,37.549459220657006,126.9665228794842,0.6446805852038843,0.0,0.0,1.0,32.74444444444444,9045797.0
200,203.0,203.0,203.0,이디야 한강진역사,20141013,폐업,20191106,"서울특별시 용산구 한남동 산 10-33번지 지하철6호선 한강진역 631-1705,1706호 ","서울특별시 용산구 이태원로 281, 지하1층 631-1705,1706호 (한남동)",199976.641457811,448731.858551578,64.00,중저가,37.54084213663539,126.99763382008884,0.3810562271486082,0.0,0.0,0.0,44.73333333333333,856817.0
201,204.0,204.0,204.0,이디야 용산아스테리움점,20140623,폐업,20170511,서울특별시 용산구 한강로2가 419번지 아스테리움 지하1층 4호,"서울특별시 용산구 한강대로30길 25, 지하1층 4호 (한강로2가, 아스테리움)",197177.441827434,447264.444809335,45.15,중저가,37.52761632269211,126.96596654466558,0.2602439823127569,3.0,0.0,3.0,44.73333333333333,8378097.0
202,205.0,205.0,205.0,이디야,20041006,폐업,20211005,서울특별시 용산구 한강로3가 40-999 이마트 지하2층 ,"서울특별시 용산구 한강대로23길 55, 지하2층 (한강로3가, 이마트)",196762.077394917,447480.039577359,23.68,중저가,37.52955742609546,126.96126654334232,0.5995011649289558,2.0,0.0,10.0,44.73333333333333,4769141.0
203,206.0,206.0,206.0,이디야 커피,20161108,영업/정상,,서울특별시 성동구 금호동1가 172번지 ,"서울특별시 성동구 난계로 35, 2층 (금호동1가)",202101.398694057,450358.716765773,82.00,중저가,37.55549774252359,127.02168003668989,0.1905277429817,1.0,0.0,0.0,44.73333333333333,4788406.0
204,207.0,207.0,207.0,이디야(왕십리 센트라스점),20160405,영업/정상,,서울특별시 성동구 홍익동 402번지 ,"서울특별시 성동구 무학로 22, 1층 (홍익동)",202608.465793876,451533.387365259,60.72,중저가,37.56608013926484,127.02742271434484,0.3148308734855229,3.0,0.0,2.0,49.1888888888889,2925316.0
205,208.0,208.0,208.0,이디야행당점,2011-05-09,폐업,2023-08-31,서울특별시 성동구 행당동 319-23 (지상1층),"서울특별시 성동구 고산자로 201 (행당동,(지상1층))",202909.320149389,450643.152428876,42.90,중저가,37.558058340087534,127.03082458811132,0.2576049091066278,1.0,0.0,0.0,45.977777777777774,3269488.0
206,209.0,209.0,209.0,이디야,20110609,영업/정상,,서울특별시 성동구 행당동 287-15번지 왕십리역이스타빌 103호(지상1층) ,"서울특별시 성동구 왕십리로 309 (행당동,왕십리역이스타빌 103호(지상1층))",202988.299644972,450991.695797571,43.64,중저가,37.56119843195402,127.0317198380725,0.351513609778622,2.0,0.0,3.0,49.1888888888889,3269488.0
207,210.0,210.0,210.0,이디야 응봉동점,20170630,영업/정상,,"서울특별시 성동구 응봉동 98 현대종합상가 108호, 109호 ","서울특별시 성동구 독서당로 381, 1층 108호,109호 (응봉동, 현대종합상가)",202665.642323691,449864.878502796,74.20,중저가,37.551046887593344,127.02806397290436,0.6385938290146419,0.0,0.0,0.0,46.53333333333333,2065440.0
208,211.0,211.0,211.0,이디야커피,20120726,영업/정상,,서울특별시 성동구 옥수동 517-12번지 ,"서울특별시 성동구 매봉길 12, 1층 (옥수동, 517-12)",201319.400008578,449223.843684062,91.45,중저가,37.54527403440189,127.01282802161118,0.4712335162107493,0.0,0.0,1.0,49.1888888888889,336039.0
209,212.0,212.0,212.0,이디야성수아카데미점,20101006,영업/정상,,서울특별시 성동구 성수동2가 277-17번지 성수아카데미아 104호 지상1층 ,"서울특별시 성동구 성수이로 118 (성수동2가,성수아카데미아 104호 지상1층)",205039.907145725,449216.223655036,92.00,중저가,37.54519281164416,127.054928121786,0.1898591652382321,3.0,1.0,3.0,46.53333333333333,3334209.0
210,213.0,213.0,213.0,이디야 성수우리W타워,20120913,영업/정상,,서울특별시 성동구 성수동2가 277-28번지 ,"서울특별시 성동구 아차산로15길 19, 1층 (성수동2가, 277-28 우리W타워)",205426.832025995,449169.918122863,72.00,중저가,37.5447734342604,127.05930610462693,0.2050966712749027,0.0,0.0,1.0,46.53333333333333,3334209.0
211,214.0,214.0,214.0,이디야 성수중앙점,20180912,영업/정상,,서울특별시 성동구 성수동2가 315-74 현성빌딩 ,"서울특별시 성동구 성수일로6길 47, 현성빌딩 1층 103호 (성수동2가)",204819.380328532,449114.221335794,136.04,중저가,37.54427494274993,127.05243204860592,0.4037413655902621,3.0,1.0,3.0,31.988888888888887,681977.0
212,215.0,215.0,215.0,이디야뚝섬유원지역점,2019-06-13,폐업,2024-06-28,서울특별시 광진구 자양동 65-1 1층,"서울특별시 광진구 능동로 21, 1층 (자양동)",205877.28221374,447919.248318372,121.77,중저가,37.53350226828237,127.06439333207908,0.2880245485010942,0.0,0.0,2.0,31.988888888888887,8361370.0
213,216.0,216.0,216.0,이디야,2013-03-25,폐업,2023-10-05,서울특별시 광진구 화양동 111-5 외 1필지 (1층),"서울특별시 광진구 광나루로 380, 1층 (화양동, 외 1필지)",206279.8211319,449481.157001217,66.00,중저가,37.547572314606846,127.06896084154836,0.4436557931502946,2.0,0.0,3.0,46.53333333333333,8158045.0
214,217.0,217.0,217.0,이디야커피(세종대후문점),20150504,영업/정상,,서울특별시 광진구 군자동 102-1번지 1층 ,"서울특별시 광진구 군자로 109, 1층 (군자동)",206291.779444678,450069.393539379,51.80,중저가,37.55287218851584,127.0691011519268,0.768713869324039,3.0,0.0,0.0,46.53333333333333,8158045.0
215,218.0,218.0,218.0,이디야,20141029,영업/정상,,서울특별시 광진구 중곡동 161-23 우진빌딩1층 ,"서울특별시 광진구 능동로 330, 1층 (중곡동, 우진빌딩)",207062.687267536,450747.181409911,103.88,중저가,37.558973455837,127.07783185840762,0.3450100677324142,1.0,0.0,2.0,46.53333333333333,7501576.0
217,220.0,220.0,220.0,이디야커피 자양동점,20130426,영업/정상,,서울특별시 광진구 자양동 681-15번지 101호,"서울특별시 광진구 자양로 46, 101호 (자양동)",207529.873230795,447780.304781214,66.00,중저가,37.53223850554502,127.08308919704088,0.833472100900247,2.0,0.0,0.0,46.53333333333333,2300304.0
218,221.0,221.0,221.0,이디야,2006-07-11,폐업,2024-03-28,서울특별시 광진구 화양동 499-1,서울특별시 광진구 광나루로 416 (화양동),206610.107204606,449361.893107443,43.57,중저가,37.54649547270303,127.0726973100908,0.1321753349770582,1.0,0.0,3.0,46.53333333333333,6710788.0
219,222.0,222.0,222.0,이디야(광진구청점),2012-02-02,폐업,2023-12-01,서울특별시 광진구 구의동 251-54,서울특별시 광진구 자양로 136 (구의동),207303.311997109,448617.656706563,30.00,중저가,37.53978478736833,127.08053419629478,0.7729228560922874,0.0,0.0,3.0,46.53333333333333,2088267.0
220,223.0,223.0,223.0,이디야커피(건대스타시티점),20141205,영업/정상,,서울특별시 광진구 자양동 227-7 스타시티몰 5호,"서울특별시 광진구 아차산로 272, 5호 (자양동, 스타시티몰)",206349.675048285,448396.939704285,56.33,중저가,37.53780313525986,127.06974203287464,0.3096578663127095,4.0,1.0,5.0,31.988888888888887,232173.0
222,225.0,225.0,225.0,이디야(건대스타시티2호점),20180417,영업/정상,,서울특별시 광진구 자양동 227-342 롯데백화점지하2층201호 ,"서울특별시 광진구 능동로 92, 롯데백화점 지하2층 201호 (자양동)",206217.434726027,448506.218743834,34.19,중저가,37.53878862240545,127.06824670604944,0.2253075388536753,3.0,2.0,5.0,46.53333333333333,232173.0
223,226.0,226.0,226.0,이디야중곡신성점,20200831,영업/정상,,서울특별시 광진구 중곡동 123-6 이안빌딩,"서울특별시 광진구 용마산로 37, 이안빌딩 1층 (중곡동)",207682.440879561,450531.122243206,126.67,중저가,37.55702187348884,127.08484384126037,0.3812300755255963,2.0,0.0,0.0,46.53333333333333,6838959.0
226,229.0,229.0,229.0,이디야커피 자양사거리점,20130312,폐업,20200917,서울특별시 광진구 자양동 680-2 ,"서울특별시 광진구 자양로 92, 1층 (자양동)",207369.576935296,448199.234475482,79.00,중저가,37.53601431408615,127.081279814162,0.7204793411740148,4.0,0.0,4.0,47.67777777777778,5587349.0
227,230.0,230.0,230.0,이디야답십리파크자이점,20190311,영업/정상,,서울특별시 동대문구 답십리동 12-18 영진빌딩,"서울특별시 동대문구 한천로 55, 영진빌딩 1층 (답십리동)",205393.433367381,451620.970949384,85.00,중저가,37.56685736119718,127.05894597409946,0.5790256151674499,1.0,0.0,0.0,33.922222222222224,2169578.0
228,231.0,231.0,231.0,이디야커피(촬영소사거리점),20141024,영업/정상,,서울특별시 동대문구 장안동 387-4번지 1층 ,"서울특별시 동대문구 답십리로 264, 1층 (장안동)",206067.434918233,452221.095517991,105.60,중저가,37.57226026431552,127.06657988384468,1.2157590052596143,3.0,0.0,3.0,33.922222222222224,858710.0
229,232.0,232.0,232.0,이디야 답십리사거리점,20211206,영업/정상,,서울특별시 동대문구 답십리동 241-16 ,"서울특별시 동대문구 답십리로 145, 1,2층 (답십리동)",204886.737194561,452312.275460669,227.52,중저가,37.57308871984884,127.05321524348544,0.6730471281490054,2.0,1.0,1.0,40.75555555555556,5100272.0
230,233.0,233.0,233.0,이디야커피 장안중랑천점,20211019,영업/정상,,서울특별시 동대문구 장안동 350-3 ,"서울특별시 동대문구 장한로18길 32, 1층 (장안동)",206182.128076944,451695.384687285,67.78,중저가,37.567522921735495,127.06787380013816,0.7395817260687318,2.0,0.0,0.0,44.73333333333333,11032370.0
231,234.0,234.0,234.0,이디야 장한평 군자초교점,20210329,영업/정상,,서울특별시 동대문구 장안동 408-13 ,"서울특별시 동대문구 한천로2길 53, 1층 (장안동)",205356.227543149,451177.571534221,86.00,중저가,37.56286259869544,127.05852164445332,0.382174353348588,1.0,0.0,0.0,33.922222222222224,2169578.0
232,235.0,235.0,235.0,이디야이문점,20170314,영업/정상,,서울특별시 동대문구 이문동 238-18번지 ,"서울특별시 동대문구 신이문로 19, 1층 (이문동)",205601.787118129,455646.76013145,56.00,중저가,37.603127896189065,127.06133473835594,0.9270580636557856,1.0,1.0,0.0,40.75555555555556,275679.0
233,236.0,236.0,236.0,이디야커피 동대문구청점,2018-06-04,영업/정상,,서울특별시 동대문구 용두동 39-809,"서울특별시 동대문구 천호대로 153-1, 1층 (용두동)",203521.35446846,452371.582837418,85.98,중저가,37.5736292062759,127.03775951457996,0.2090288142096436,1.0,0.0,0.0,44.73333333333333,6264414.0
234,237.0,237.0,237.0,이디야커피(배봉초교사거리점),20140926,영업/정상,,서울특별시 동대문구 장안동 105-7번지 1층 ,"서울특별시 동대문구 답십리로63길 131, 1층 (장안동)",206053.893645521,452913.215773137,107.58,중저가,37.57849626288129,127.06643225306406,1.7739789181083294,1.0,1.0,0.0,47.67777777777778,295522.0
235,238.0,238.0,238.0,이디야경희대점,20170823,영업/정상,,서울특별시 동대문구 회기동 16-55,"서울특별시 동대문구 경희대로 4, 2층 (회기동)",204569.432296208,454399.29339359,126.28,중저가,37.59189405971389,127.04963620789133,1.2193185509324138,1.0,0.0,5.0,44.73333333333333,1901819.0
236,239.0,239.0,239.0,이디야 동부병원사거리점,20150424,영업/정상,,서울특별시 동대문구 용두동 127-16번지 ,"서울특별시 동대문구 무학로 104, 1층 (용두동)",202660.986070775,452358.367217647,105.00,중저가,37.57351296157957,127.02802010399432,0.3744241223826241,1.0,0.0,0.0,33.922222222222224,7999212.0
237,240.0,240.0,240.0,이디야커피 장안중앙점,20150529,영업/정상,,서울특별시 동대문구 장안동 93-99,"서울특별시 동대문구 사가정로25길 42, 1층 (장안동)",206198.342004786,453157.77394507,104.88,중저가,37.58069874695314,127.06806955913976,1.7798563067151156,0.0,1.0,0.0,40.75555555555556,295522.0
238,241.0,241.0,241.0,이디야커피,20160108,영업/정상,,서울특별시 동대문구 용두동 119-1번지 ,서울특별시 동대문구 왕산로 68 (용두동),202672.572284882,452819.875924154,139.38,중저가,37.57767106241874,127.02815290117564,0.2355857693118366,1.0,0.0,1.0,47.67777777777778,2543009.0
239,242.0,242.0,242.0,이디야커피점,20110314,영업/정상,,서울특별시 동대문구 장안동 430-3 지상1층,"서울특별시 동대문구 장한로 43 (장안동,지상1층)",205821.493944261,451425.917121025,79.20,중저가,37.565097374822045,127.06378964503553,0.4080543531316031,0.0,0.0,0.0,33.922222222222224,11032370.0
240,243.0,243.0,243.0,이디야커피(회기중앙점),20121106,영업/정상,,서울특별시 동대문구 휘경동 191-4번지 ,"서울특별시 동대문구 회기로 193, 1층 (휘경동)",205005.345101437,454211.977207593,66.00,중저가,37.5902041342226,127.05457067861876,1.3786752060823293,3.0,0.0,3.0,40.75555555555556,1508604.0
241,244.0,244.0,244.0,이디야커피(전농사거리점),2012-12-05,영업/정상,,서울특별시 동대문구 전농동 39-18 1층(39-9),"서울특별시 동대문구 사가정로 132, 1층 (전농동, (39-9))",205187.072884591,452813.435318697,76.00,중저가,37.57760248278679,127.0566185167099,0.9653545108987588,2.0,0.0,0.0,44.73333333333333,1969038.0
242,245.0,245.0,245.0,이디야(장안동사거리점),20130909,영업/정상,,서울특별시 동대문구 장안동 331-4번지 1층 ,"서울특별시 동대문구 답십리로 309, 1층 (장안동)",206543.156690365,452235.566160448,99.00,중저가,37.57238742069499,127.07196507670092,1.342692288095405,2.0,0.0,1.0,47.67777777777778,6749770.0
243,246.0,246.0,246.0,이디야커피,20101019,영업/정상,,서울특별시 동대문구 청량리동 235-4번지 1층 10호 ,"서울특별시 동대문구 왕산로 225 (청량리동,1층 10호)",204089.817117361,453314.135663101,49.50,중저가,37.58211917187196,127.04419968161378,0.3023623612984529,1.0,0.0,1.0,44.73333333333333,1655175.0
244,247.0,247.0,247.0,이디야커피,20080424,영업/정상,,서울특별시 동대문구 신설동 102-26 남선빌딩 1층 (하정로 13) ,"서울특별시 동대문구 천호대로 11-3 (신설동,남선빌딩 1층 (하정로 13))",202136.434632005,452534.940181555,93.04,중저가,37.57510519042812,127.0220826934272,0.3734280704310407,3.0,2.0,4.0,40.75555555555556,7999212.0
245,248.0,248.0,248.0,이디야회기역점,2007-04-17,폐업,2024-01-05,서울특별시 동대문구 휘경동 264-2 효자워너빌 103호,"서울특별시 동대문구 망우로 67 (휘경동,효자워너빌 103호)",205310.579775544,454183.35022373,39.80,중저가,37.58994452112288,127.05802649271232,1.5447184692513571,1.0,0.0,3.0,47.67777777777778,5133205.0
246,249.0,249.0,249.0,이디야 신설동역점,20110215,폐업,20180313,서울특별시 동대문구 신설동 76-36번지 1층 ,"서울특별시 동대문구 왕산로 15-1, 1층 (신설동)",202165.405300438,452692.783720081,66.00,중저가,37.57652727463123,127.02241109992744,0.3129251637806699,2.0,1.0,2.0,40.75555555555556,7999212.0
247,250.0,250.0,250.0,이디야 커피(이마트이문점),20091210,폐업,20160308,서울특별시 동대문구 이문동 292-10번지 지하1층 ,"서울특별시 동대문구 이문로 136, 지하1층 (이문동, KCC웰츠타워)",205396.363734301,455131.683241064,31.63,중저가,37.59848835511636,127.05900468022875,1.251834767179154,2.0,0.0,0.0,28.6,5033979.0
248,251.0,251.0,251.0,이디야커피답십리사거리점,20131014,폐업,20210723,서울특별시 동대문구 답십리동 245-2 1층 ,"서울특별시 동대문구 답십리로 154, 1층 (답십리동)",204974.071407858,452260.622710941,70.58,중저가,37.57262287397858,127.05420351287783,0.6377648712626782,2.0,1.0,1.0,46.333333333333336,3088189.0
249,252.0,252.0,252.0,이디야 외대대학원점,20100825,폐업,20170919,서울특별시 동대문구 이문동 270-1번지 대학원 1층 ,"서울특별시 동대문구 이문로 107 (이문동,대학원 1층)",205114.830839822,455013.644655621,92.40,중저가,37.59742643485816,127.05581585726163,1.1965189380053236,1.0,0.0,3.0,46.333333333333336,5033979.0
250,253.0,253.0,253.0,이디야 개화산점,20110201,영업/정상,,서울특별시 강서구 방화동 849-0 벽산에어트리움 (지상 1층) 본관동 101~103호,"서울특별시 강서구 양천로 28, 벽산에어트리움 본관동 1층 101~103호 (방화동)",182876.367858149,452247.393831256,95.01,중저가,37.57235643996594,126.80406179993368,0.1496132652413736,0.0,1.0,1.0,46.333333333333336,215245.0
251,254.0,254.0,254.0,이디야,20220214,영업/정상,,서울특별시 중랑구 상봉동 116-12 ,"서울특별시 중랑구 망우로 277, 1층 (상봉동)",207297.240092472,454863.701751677,170.25,중저가,37.59606091480182,127.0805270818045,0.4910896536256536,3.0,1.0,2.0,33.922222222222224,2198055.0
252,255.0,255.0,255.0,이디야커피 서울중화초등학교점,20220304,영업/정상,,서울특별시 중랑구 신내동 531-2 제이리옴,"서울특별시 중랑구 신내로7가길 7, 제이리옴 1층 101호 (신내동)",208359.936764107,455562.498229876,71.26,중저가,37.602347984992406,127.0925683122602,0.8468320049146919,0.0,0.0,0.0,46.333333333333336,245556.0
253,256.0,256.0,256.0,이디야커피 신내동점,20120910,영업/정상,,서울특별시 중랑구 신내동 613-10 ,"서울특별시 중랑구 봉화산로 215, 1층 (신내동)",208457.071353064,456153.414908527,66.00,중저가,37.60767115372262,127.0936750696097,0.9737083686861624,2.0,0.0,1.0,46.333333333333336,245556.0
254,257.0,257.0,257.0,이디야(사가정점),20120905,영업/정상,,서울특별시 중랑구 면목동 496-18번지 ,"서울특별시 중랑구 면목로 325, 1층 (면목동)",207718.31028614,453208.570852504,70.00,중저가,37.58114504370037,127.08527773133748,0.2969139331903209,3.0,0.0,2.0,46.333333333333336,1314619.0
255,258.0,258.0,258.0,이디야망우동점,2012-10-24,영업/정상,,서울특별시 중랑구 망우동 470-14,"서울특별시 중랑구 망우로 416, 1층 (망우동)",208616.651000986,455204.466330052,68.00,중저가,37.59911983245761,127.09547124751948,0.8720264694363989,2.0,0.0,1.0,46.333333333333336,2862706.0
256,259.0,259.0,259.0,이디야커피,20091102,영업/정상,,서울특별시 중랑구 신내동 646번지 ,"서울특별시 중랑구 신내로 211, 114호 (신내동, 금강리빙스텔)",208112.860200669,457113.638411288,34.10,중저가,37.61632565432782,127.08978738999562,0.310977928247879,2.0,0.0,1.0,46.333333333333336,6092773.0
257,260.0,260.0,260.0,이디야 중랑교차로점,2017-06-19,영업/정상,,서울특별시 중랑구 면목동 183-37,"서울특별시 중랑구 동일로 683, 1층 (면목동)",206985.468298911,454351.475934752,70.80,중저가,37.59144824127274,127.07699193200094,0.94620771463124,1.0,0.0,0.0,46.333333333333336,6443356.0
258,261.0,261.0,261.0,이디야 커피점,20160115,영업/정상,,서울특별시 중랑구 상봉동 500번지 ,"서울특별시 중랑구 망우로 353 (상봉동, 이노시티AB-124호)",207923.745922676,455090.718335439,93.41,중저가,37.598101159737865,127.08762368028492,0.2043829353824462,1.0,0.0,3.0,46.333333333333336,7481339.0
259,262.0,262.0,262.0,이디야커피,20141226,영업/정상,,서울특별시 중랑구 묵동 189-5번지 먹골역내 지하2층 ,"서울특별시 중랑구 동일로 지하 901, 지2층 (묵동)",206792.580647654,456506.247206059,57.00,중저가,37.610863781394166,127.07482772293152,0.2545833413579627,3.0,1.0,0.0,46.333333333333336,8936797.0
260,263.0,263.0,263.0,이디야 상봉중앙점,20140930,영업/정상,,서울특별시 중랑구 상봉동 101번지 이지팰리스 103호,"서울특별시 중랑구 망우로 316, 1층 103호 (상봉동)",207660.883688474,454911.110252938,55.76,중저가,37.59648512851474,127.08464524774276,0.1259005016175452,3.0,1.0,4.0,46.333333333333336,6645186.0
261,264.0,264.0,264.0,이디야 망우중앙점,2015-02-26,영업/정상,,서울특별시 중랑구 망우동 495,"서울특별시 중랑구 용마산로115길 109, S2002호 (망우동, 한일써너스빌리젠시)",208267.592391698,455042.983909137,56.18,중저가,37.59766808100586,127.0915167551704,0.49372355887263,1.0,0.0,2.0,46.333333333333336,7481339.0
262,265.0,265.0,265.0,이디야,2014-11-19,폐업,2023-12-07,서울특별시 중랑구 망우동 458-3 지상1층,"서울특별시 중랑구 봉우재로 240, 1층 (망우동)",208706.754264585,454777.272396908,58.90,중저가,37.59527004824778,127.0964865219188,0.9361711987461654,1.0,0.0,0.0,46.333333333333336,213096.0
263,266.0,266.0,266.0,이디야,20160603,영업/정상,,서울특별시 중랑구 망우동 202-9 ,"서울특별시 중랑구 망우로 460, 1층 (망우동)",209039.984324905,455312.042928242,145.00,중저가,37.60008504784998,127.10026632376956,1.307433155471476,1.0,0.0,1.0,46.333333333333336,2150382.0
264,267.0,267.0,267.0,이디야 중화동점,20200403,영업/정상,,서울특별시 중랑구 중화동 301-1 ,"서울특별시 중랑구 동일로129길 1, 1층 (중화동)",206953.303286626,455231.444124678,79.28,중저가,37.59937684866404,127.0766360131307,0.3360045591150892,3.0,0.0,1.0,46.333333333333336,198326.0
265,268.0,268.0,268.0,이디야,20200730,영업/정상,,서울특별시 중랑구 면목동 1546 행복오피스텔 ,"서울특별시 중랑구 겸재로 240, 102호 (면목동, 행복오피스텔)",208317.942417,454457.958933,119.60,중저가,37.59239665555576,127.0920803083272,0.5461283929699499,0.0,0.0,0.0,33.922222222222224,2549303.0
266,269.0,269.0,269.0,이디야 중랑경찰서점,2021-07-15,폐업,2023-10-04,서울특별시 중랑구 신내동 813,"서울특별시 중랑구 신내역로3길 40-11, A동 1층 (신내동)",209178.827973436,457253.36836438,129.00,중저가,37.61757464876755,127.101862757405,0.5583899163286044,0.0,0.0,0.0,46.333333333333336,182956.0
267,270.0,270.0,270.0,이디야 화랑대역점,2021-02-25,영업/정상,,서울특별시 중랑구 묵동 2 104호,"서울특별시 중랑구 신내로25가길 2, 1층 104호 (묵동)",207357.595177869,457462.766652935,105.78,중저가,37.6194775265831,127.08123639746836,0.2880816570850851,0.0,1.0,0.0,33.922222222222224,6092773.0
268,271.0,271.0,271.0,이디야커피 사가정아이파크점,20201019,영업/정상,,서울특별시 중랑구 면목동 156-5 ,"서울특별시 중랑구 동일로92길 57, 1층 (면목동)",207278.258826248,453470.751633822,85.66,중저가,37.58351080525412,127.08029843607818,0.6979942079325434,0.0,0.0,0.0,46.333333333333336,4135255.0
269,272.0,272.0,272.0,이디야커피 양원역점,20210616,영업/정상,,서울특별시 중랑구 망우동 256-12 ,"서울특별시 중랑구 양원역로14가길 24, 1층 101호 (망우동)",209374.185193593,456134.309087462,59.16,중저가,37.60749019268793,127.1040612630687,0.5805887325505397,0.0,0.0,1.0,46.333333333333336,5247717.0
270,273.0,273.0,273.0,이디야(커피전문점),20121107,폐업,20220110,서울특별시 중랑구 면목동 372-20 ,"서울특별시 중랑구 면목로 247, 1층 (면목동)",207461.714560571,452544.850851529,41.93,중저가,37.57516711719733,127.0823660836739,0.4323301931996673,2.0,0.0,1.0,36.16666666666666,3310861.0
271,274.0,274.0,274.0,이디야커피(상봉역점),20110304,폐업,20220207,"서울특별시 중랑구 상봉동 115-11 1,2층 ","서울특별시 중랑구 망우로 288 (상봉동,1,2층)",207388.537653781,454836.937418686,157.62,중저가,37.59581905087886,127.08156061115098,0.4075676999299305,4.0,2.0,4.0,40.75555555555556,2198055.0
272,275.0,275.0,275.0,이디야(서일대점),20100216,폐업,20150629,서울특별시 중랑구 면목동 52-11번지 ,서울특별시 중랑구 용마산로86길 9-38 (면목동),208478.169268401,453927.028109113,55.77,중저가,37.5876116051592,127.09388843170964,0.6027106966883042,2.0,0.0,1.0,36.16666666666666,2079159.0
273,276.0,276.0,276.0,이디야,20111012,영업/정상,,서울특별시 성북구 하월곡동 79-19번지 동민빌딩1층 ,"서울특별시 성북구 오패산로 99 (하월곡동,동민빌딩1층)",203032.321045745,456492.313932503,80.21,중저가,37.61075805716192,127.03224035214872,0.5094236250450336,2.0,0.0,0.0,52.366666666666674,11753765.0
274,277.0,277.0,277.0,EDIYA COFFEE 이디야커피 석관동점,20190528,영업/정상,,서울특별시 성북구 석관동 46-50번지 래미안아트리치 ,"서울특별시 성북구 돌곶이로8길 22, 301동 1층 109,110호 (석관동, 래미안아트리치)",205585.778224201,455938.641077764,66.6,중저가,37.60575778766872,127.06115564729812,0.6726872838251229,0.0,1.0,0.0,50.4,275679.0
275,278.0,278.0,278.0,이디야 동덕여대점,20071029,영업/정상,,서울특별시 성북구 하월곡동 16-13 ,"서울특별시 성북구 화랑로 99, 1층 (하월곡동)",203700.163051298,455683.541784464,66.1,중저가,37.60346876875306,127.03980005829564,0.2384230486513422,1.0,0.0,4.0,36.16666666666666,1626537.0
276,279.0,279.0,279.0,이디야,20111128,영업/정상,,서울특별시 성북구 종암동 87-4번지 ,서울특별시 성북구 종암로 105 (종암동),202925.57087047,455253.523708402,48.76,중저가,37.59959711277113,127.03102649994774,0.902453644683918,1.0,0.0,2.0,36.16666666666666,2969523.0
277,280.0,280.0,280.0,이디야커피 한성대역점,2010-12-07,폐업,2024-04-02,서울특별시 성북구 동소문동1가 90 지상1-2층,"서울특별시 성북구 동소문로 19, 지상1-2층 (동소문동1가)",200645.918769282,454135.508838328,57.0,중저가,37.58952823782196,127.00521099925174,0.1753708684969781,3.0,1.0,5.0,36.16666666666666,2642581.0
278,282.0,282.0,282.0,이디야커피(하월곡동점),20150803,영업/정상,,서울특별시 성북구 하월곡동 67-37번지 ,서울특별시 성북구 오패산로 16 (하월곡동),203250.198669162,455701.490029192,51.2,중저가,37.60363214677572,127.03470450953355,0.6272214468485873,1.0,0.0,0.0,52.366666666666674,4882019.0
279,283.0,283.0,283.0,이디야(EDIYA),2013-02-05,폐업,2023-03-24,서울특별시 성북구 석관동 246-10,"서울특별시 성북구 돌곶이로22길 3, 1층 (석관동)",205060.731432101,456432.184537298,52.9,중저가,37.61020752429728,127.05521293669705,0.1095290887591824,2.0,1.0,0.0,50.4,3542681.0
280,284.0,284.0,284.0,이디야커피장위동점,20140123,영업/정상,,서울특별시 성북구 장위동 316-3번지 ,"서울특별시 성북구 월계로40길 7, 1층 104호 (장위동, 센트럴타운)",204208.631200867,457844.348010616,53.2,중저가,37.62293507459278,127.0455704459814,1.628685659850974,1.0,0.0,0.0,52.366666666666674,55614.0
281,285.0,285.0,285.0,이디야고대점,2017-12-29,영업/정상,,서울특별시 성북구 안암동5가 102-12 1층,"서울특별시 성북구 고려대로24길 35, 1층 (안암동5가)",202540.997524952,453598.21410848,73.52,중저가,37.584684144976144,127.02666602481658,0.2851538169468152,2.0,0.0,7.0,52.366666666666674,3695572.0
282,286.0,286.0,286.0,이디야 고대개운점,20130828,영업/정상,,서울특별시 성북구 안암동5가 15-57 대흥빌딩 1층 ,"서울특별시 성북구 개운사길 30 (안암동5가, 대흥빌딩 1층)",202530.245612376,453931.918583743,99.0,중저가,37.58769080244982,127.02654541798849,0.3060447903946979,1.0,1.0,11.0,36.16666666666666,3695572.0
283,287.0,287.0,287.0,이디야커피동소문동점,20140115,영업/정상,,서울특별시 성북구 동소문동4가 272번지 ,"서울특별시 성북구 동소문로13길 5 (동소문동4가, 272)",201067.523284949,454414.94348423,54.94,중저가,37.59204553878112,127.00998495730796,0.5800538926458476,1.0,0.0,0.0,36.16666666666666,5992134.0
284,288.0,288.0,288.0,이디야커피돈암아리랑점,2017-01-19,폐업,2024-06-27,서울특별시 성북구 돈암동 535-1 돈암코오롱하늘채 상가 112호,"서울특별시 성북구 아리랑로 75, 112호 (돈암동, 돈암코오롱하늘채 상가)",201051.072165281,455205.325182072,79.98,중저가,37.5991667695382,127.0097997492514,0.9130490792957258,1.0,0.0,0.0,36.16666666666666,1061823.0
285,289.0,289.0,289.0,이디야커피정릉뉴타운점,2014-03-26,폐업,2023-07-26,서울특별시 성북구 정릉동 1034 길음뉴타운10단지 라온유아파트 상가동동 B107호,"서울특별시 성북구 정릉로 307, 상가동 B107호 (정릉동)",201548.495615664,455659.81785175,87.74,중저가,37.603261004491706,127.01543342445646,0.5331587268003051,2.0,0.0,0.0,52.366666666666674,741520.0
286,290.0,290.0,290.0,이디야 길음뉴타운점,2012-11-19,영업/정상,,"서울특별시 성북구 길음동 1282 길음뉴타운 상가동 102,103호","서울특별시 성북구 길음로 74, 상가동 1층 102,103호 (길음동, 길음뉴타운)",201759.118043073,456372.912165385,67.68,중저가,37.60968549464849,127.01782026476424,0.8810398672917591,0.0,0.0,0.0,36.16666666666666,788645.0
287,291.0,291.0,291.0,이디야커피,2013-10-25,폐업,2023-08-07,"서울특별시 성북구 하월곡동 230 동일하이빌뉴시티 120호, 120-1호","서울특별시 성북구 종암로 167 (하월곡동, 동일하이빌뉴시티 120호, 120-1호)",202667.468802014,455858.920803881,70.0,중저가,37.605052403184345,127.02810592321048,0.6701285919329826,2.0,0.0,0.0,36.16666666666666,175671.0
288,292.0,292.0,292.0,이디야 길음중앙점,20200528,폐업,20220908,서울특별시 성북구 길음동 25-7 삼주빌딩 1층,"서울특별시 성북구 도봉로 11, 삼주빌딩 1층 (길음동)",202571.112398571,456435.426313848,55.11,중저가,37.6102468821222,127.0270166846107,0.5908324167474236,2.0,0.0,5.0,36.16666666666666,256988.0
289,293.0,293.0,293.0,이디야커피 성신여대역점,2020-04-14,영업/정상,,서울특별시 성북구 동소문동6가 154-1,"서울특별시 성북구 동소문로17길 40, 1층 (동소문동6가)",201337.148215,454625.698998026,101.68,중저가,37.59394407998318,127.0130382278571,0.3429133628685247,1.0,1.0,4.0,36.16666666666666,5194324.0
290,294.0,294.0,294.0,이디야 북서울꿈의숲점,20200519,영업/정상,,"서울특별시 성북구 장위동 219-44번지 1~2층 (101호, 102호) ","서울특별시 성북구 돌곶이로41가길 2, 1,2층 101, 201호 (장위동)",203957.267931295,457368.040549125,125.65,중저가,37.618644738203294,127.04272060367084,1.188978956779167,1.0,0.0,1.0,52.366666666666674,3034558.0
291,295.0,295.0,295.0,이디야커피 장위2동점,20200611,영업/정상,,서울특별시 성북구 장위동 66-320번지 1층 ,"서울특별시 성북구 화랑로25길 14, 1층 (장위동)",204562.060358261,456330.597842393,76.03,중저가,37.60929481949152,127.0495645979012,0.2467374632587096,0.0,0.0,0.0,36.16666666666666,1416172.0
292,296.0,296.0,296.0,이디야 장위뉴타운점,2020-08-12,영업/정상,,서울특별시 성북구 장위동 203-9 1층,"서울특별시 성북구 장월로 144-1, 1층 (장위동)",204435.160677817,457258.924116243,121.6,중저가,37.617659474186674,127.04813295287336,1.0796470995496323,2.0,0.0,1.0,52.366666666666674,2417141.0
293,297.0,297.0,297.0,이디야 월곡동아점,20201026,영업/정상,,서울특별시 성북구 상월곡동 55-76 1층 ,"서울특별시 성북구 장월로1길 47, 1층 (상월곡동)",203973.23418677,455986.547166597,82.0,중저가,37.60619767466422,127.042894072856,0.5115829132298212,0.0,0.0,0.0,50.4,131060.0
294,298.0,298.0,298.0,이디야성신여대역점,20090327,폐업,20171023,서울특별시 성북구 동소문동6가 147번지 ,"서울특별시 성북구 아리랑로 9 (동소문동6가, 산맥프라자 1층1호)",201342.102885448,454603.051999187,47.13,중저가,37.59374002721648,127.01309429044538,0.3325704829566617,1.0,1.0,4.0,36.55555555555556,5194324.0
295,299.0,299.0,299.0,이디야 상월곡역사점,20141031,폐업,20191029,서울특별시 성북구 상월곡동 26-1번지 ,"서울특별시 성북구 화랑로 지하 157, 지하2층 642-2705,2706호 (상월곡동, 상월곡역 )",204330.488275113,456085.349815294,82.17,중저가,37.60708628208327,127.04694052391434,0.2546049942360752,0.0,0.0,0.0,36.55555555555556,5522361.0
296,300.0,300.0,300.0,이디야 고려대역사점,20141016,폐업,20191029,서울특별시 성북구 종암동 29-18번지 6호선 고려대역 B1층 640-1705호 ,"서울특별시 성북구 종암로 지하 1, B1층 640-1705호 (종암동, 6호선 고려대역)",203120.220219624,454248.371932964,25.0,중저가,37.59054023067034,127.03322650181607,0.2383414119735619,0.0,0.0,1.0,36.55555555555556,3238722.0
297,301.0,301.0,301.0,이디야 커피 한성대역점 2층,20121228,폐업,20150804,서울특별시 성북구 동소문동1가 90번지 2층 ,서울특별시 성북구 동소문로 19 (동소문동1가),200645.918769282,454135.508838328,27.0,중저가,37.58952823782196,127.00521099925174,0.1753708684969781,3.0,1.0,5.0,36.16666666666666,2642581.0
298,302.0,302.0,302.0,이디야 커피(번동점),20140808,영업/정상,,서울특별시 강북구 번동 309번지 ,서울특별시 강북구 오현로 194 (번동),203452.54250506,458496.347795039,58.61,중저가,37.628812553043645,127.0370088990908,0.9942703261301622,1.0,0.0,0.0,36.55555555555556,1705145.0
299,303.0,303.0,303.0,이디야 커피 신수유역점,20140709,영업/정상,,서울특별시 강북구 수유동 370-4,서울특별시 강북구 삼양로 425 (수유동),201390.93112055,459904.537484995,114.5,중저가,37.64150531621778,127.01365678359164,1.20857215389131,1.0,0.0,0.0,36.16666666666666,8230237.0
300,304.0,304.0,304.0,이디야커피,20121213,영업/정상,,서울특별시 강북구 수유동 48-1 제네스타워 106호,"서울특별시 강북구 덕릉로 82, 106호 (수유동, 제네스타워)",201947.420117151,459116.426726053,54.62,중저가,37.63440364427744,127.01995993228844,0.8741093360388807,2.0,0.0,2.0,36.55555555555556,4728106.0
301,305.0,305.0,305.0,이디야커피,2014-11-19,폐업,2023-05-24,서울특별시 강북구 미아동 688-5 삼양아케이트,"서울특별시 강북구 솔샘로 254, 삼양아케이트 1층 14호 (미아동)",201762.419935414,457441.244070216,66.0,중저가,37.6193109571708,127.01786013860728,1.0769195939520109,2.0,0.0,1.0,36.55555555555556,276693.0
302,306.0,306.0,306.0,이디야(한신대점),20150203,영업/정상,,서울특별시 강북구 수유동 451-13 ,서울특별시 강북구 덕릉로 31 (수유동),201425.244526217,459096.21304272,127.95,중저가,37.63422244449288,127.01404405978028,1.313318543975146,0.0,0.0,0.0,36.16666666666666,1378617.0
303,307.0,307.0,307.0,이디야,20150204,영업/정상,,서울특별시 강북구 미아동 134-39번지 ,서울특별시 강북구 도봉로 128 (미아동),202469.796754285,457569.497829615,41.28,중저가,37.62046492056117,127.02587295745592,0.6661965602286594,0.0,0.0,0.0,36.16666666666666,5176568.0
304,308.0,308.0,308.0,이디야 커피,2016-04-15,폐업,2023-12-12,서울특별시 강북구 수유동 279-2 1층,"서울특별시 강북구 삼양로 501, 1층 (수유동)",201186.272639371,460613.10848142,47.0,중저가,37.64788964679849,127.01133903225475,1.6631955971865942,0.0,0.0,1.0,36.55555555555556,4144696.0
305,309.0,309.0,309.0,이디야(북한산점),2016-06-23,영업/정상,,서울특별시 강북구 수유동 535-16,"서울특별시 강북구 4.19로 85, 1층 (수유동)",200425.020654375,460264.603296498,180.0,중저가,37.64475031162223,127.00271292042292,2.2265458151200264,0.0,0.0,0.0,36.55555555555556,1741745.0
306,310.0,310.0,310.0,이디야 커피(미아송천),2016-03-14,폐업,2023-10-05,서울특별시 강북구 미아동 637-397 2층,"서울특별시 강북구 삼양로 118, 2층 (미아동)",201910.234747501,456898.788065585,79.0,중저가,37.61442324838511,127.0195330563401,0.9270387711282364,0.0,0.0,0.0,36.55555555555556,788645.0
307,311.0,311.0,311.0,이디야커피(미아꿈의숲헤링턴점),20200225,영업/정상,,서울특별시 강북구 미아동 3-19번지 꿈의숲 효성해링턴플레이스 ,"서울특별시 강북구 오현로 45, 상가동 지하2층 2-7호 (미아동, 꿈의숲 효성해링턴플레이스)",202934.931509733,457212.441211075,70.94,중저가,37.61724657673432,127.03114017985354,0.2689148197547536,0.0,0.0,0.0,26.266666666666666,10614506.0
308,312.0,312.0,312.0,이디야 수유역점,20101228,영업/정상,,서울특별시 강북구 수유동 191-2,서울특별시 강북구 도봉로 355 (수유동),202291.422091121,459670.197123907,52.8,중저가,37.63939222280191,127.02385888818633,0.2979293657641295,4.0,0.0,3.0,36.55555555555556,3189229.0
309,313.0,313.0,313.0,이디야 우이역도선사점,20181213,영업/정상,,"서울특별시 강북구 우이동 18-5 1,2층 ","서울특별시 강북구 삼양로173길 21, 1,2층 (우이동)",200928.010750047,462234.752178333,165.32,중저가,37.66250052803343,127.00841451773924,2.7834691690518536,1.0,0.0,0.0,36.55555555555556,894356.0
310,314.0,314.0,314.0,이디야 쌍문동점,20190401,영업/정상,,서울특별시 도봉구 쌍문동 342-3 ,"서울특별시 도봉구 노해로 162, 1층 (쌍문동)",202338.176087569,460715.069435276,69.12,중저가,37.648806162452985,127.02439185988656,0.9419848588993808,2.0,0.0,0.0,26.266666666666666,6291892.0
311,315.0,315.0,315.0,이디야 창동블루핀점,20200803,영업/정상,,서울특별시 도봉구 창동 743-28 ,"서울특별시 도봉구 마들로 550, 1동 1층 104호,105호 (창동)",204308.803324021,462013.490422468,71.68,중저가,37.66049761772387,127.046729352441,0.8670136164489988,0.0,0.0,0.0,36.55555555555556,1506117.0
312,316.0,316.0,316.0,이디야커피,20110408,영업/정상,,서울특별시 도봉구 방학동 670번지 102호 ,"서울특별시 도봉구 방학로 171 (방학동,102호)",202864.39,462197.035,29.7,중저가,37.66215684483128,127.03036027695286,1.5148834734714092,0.0,0.0,0.0,26.266666666666666,2240246.0
313,317.0,317.0,317.0,이디야커피 쌍문중앙점,2015-08-13,폐업,2024-05-03,서울특별시 도봉구 쌍문동 80-18 1~2층,"서울특별시 도봉구 도봉로 519, 1~2층 (쌍문동)",203137.532832521,461065.523793098,152.14,중저가,37.65196134479011,127.0334511587094,0.3535807754498691,0.0,0.0,0.0,36.55555555555556,3602907.0
314,318.0,318.0,318.0,이디야,20141219,영업/정상,,"서울특별시 도봉구 도봉동 596-20 지상1,2층 ","서울특별시 도봉구 도봉로 823, 지상1,2층 (도봉동)",203878.494392592,463945.292746792,94.45,중저가,37.67790451271375,127.04186268358184,1.1879650623269082,1.0,0.0,0.0,36.55555555555556,2177870.0
315,319.0,319.0,319.0,이디야커피,20140310,영업/정상,,서울특별시 도봉구 창동 578-146 지상1층,"서울특별시 도봉구 덕릉로 235, 지상1층 (창동)",203293.185108235,459619.8218038,42.7,중저가,37.638935379973816,127.03520860279728,0.7106589335535802,1.0,0.0,0.0,26.266666666666666,3234467.0
316,320.0,320.0,320.0,이디야커피방학사거리점,20171020,영업/정상,,서울특별시 도봉구 방학동 703-17번지 메디빌딩 104호,"서울특별시 도봉구 도봉로 677, 104호 (방학동, 메디빌딩)",203663.222587199,462505.455032714,66.0,중저가,37.66493284474564,127.03941530264224,1.5478730162135643,3.0,1.0,2.0,36.55555555555556,4993763.0
317,321.0,321.0,321.0,이디야커피 창동대우점,20211129,영업/정상,,서울특별시 도봉구 창동 609-156,"서울특별시 도봉구 덕릉로63가길 30, 1층 (창동)",203348.671462961,460126.630817414,60.0,중저가,37.6435014153433,127.03583953443427,0.6213105629391447,1.0,0.0,0.0,26.266666666666666,7409244.0
318,322.0,322.0,322.0,이디야창동제일점,20210705,영업/정상,,서울특별시 도봉구 창동 33-3,"서울특별시 도봉구 노해로70길 81, 1층 101호 (창동)",204569.769384803,460720.689890064,87.01,중저가,37.64884857005605,127.04967895015344,0.4609429688847791,0.0,0.0,0.0,36.55555555555556,1597250.0
319,323.0,323.0,323.0,이디야커피창동하나로마트점,20210707,영업/정상,,서울특별시 도봉구 창동 1-10 농협창동유통센타 ,"서울특별시 도봉구 마들로11길 20, 농협창동유통센타 1층 (창동)",204413.616574592,461378.588676784,47.4,중저가,37.65477682655791,127.0479134375528,0.2242780939289175,1.0,1.0,2.0,26.266666666666666,1597250.0
320,324.0,324.0,324.0,이디야커피창동학원가점,2012-09-04,영업/정상,,서울특별시 도봉구 창동 288-40 1층,"서울특별시 도봉구 해등로16길 61, 1층 (창동)",203756.037003506,461418.934628764,46.0,중저가,37.65514321096411,127.0404617539466,0.7100867997662387,2.0,0.0,0.0,36.55555555555556,664090.0
321,325.0,325.0,325.0,이디야(도봉중앙점),20150415,영업/정상,,서울특별시 도봉구 도봉동 568-33번지 지상1층 ,"서울특별시 도봉구 도봉로181길 18, 지상1층 (도봉동)",203888.163049788,464649.181808576,115.0,중저가,37.6842463063967,127.04197597515642,0.6736537306974824,1.0,0.0,0.0,36.16666666666666,6200191.0
322,326.0,326.0,326.0,이디야커피 쌍문역점,2012-05-21,영업/정상,,"서울특별시 도봉구 쌍문동 88-20 1,2층","서울특별시 도봉구 도봉로117길 4, 1,2층 (쌍문동)",202993.547099369,460786.246653772,122.14,중저가,37.64944559664434,127.03181841123724,0.2909568862595854,4.0,1.0,2.0,46.53333333333333,6562361.0
323,327.0,327.0,327.0,이디야도봉산역점,20141014,폐업,20191031,서울특별시 도봉구 도봉동 38-3번지 7호선 도봉산역내 지상1층 ,"서울특별시 도봉구 도봉로 964-40, 지상1층 (도봉동, 7호선 도봉산역내)",204046.780043721,465180.671733594,36.0,중저가,37.68903419545166,127.04377708320632,0.2543190107035671,0.0,0.0,0.0,46.333333333333336,864903.0
325,329.0,329.0,329.0,이디야월계초교점,2018-11-29,폐업,2023-10-18,서울특별시 노원구 월계동 845-5 성진빌딩 101호,"서울특별시 노원구 월계로45길 37, 성진빌딩 1층 101호 (월계동)",204376.414367095,458295.225158013,61.05,중저가,37.62699661272826,127.04747366125788,1.8816107198141163,2.0,1.0,0.0,26.266666666666666,951890.0
326,330.0,330.0,330.0,이디야(자양우성점),20140331,영업/정상,,"서울특별시 광진구 자양동 608-21 (1층 104호, 105호)","서울특별시 광진구 자양번영로 34, 1층 104호,105호 (자양동, 제이원하이텔)",206632.334947298,447830.956483333,76.0,중저가,37.53270169920824,127.07293514773173,0.5293889394724683,0.0,0.0,0.0,46.333333333333336,218985.0
327,331.0,331.0,331.0,이디야커피공릉역점,20121218,영업/정상,,서울특별시 노원구 공릉동 386-6번지 지상1층 ,"서울특별시 노원구 동일로192길 5 (공릉동, 지상1층)",206401.782045923,458210.001926975,47.0,중저가,37.62621704253347,127.07041644039008,0.2115204156894602,2.0,0.0,1.0,26.266666666666666,2760815.0
328,332.0,332.0,332.0,이디야커피 태릉입구역점,20130108,영업/정상,,서울특별시 노원구 공릉동 633-17 성종빌딩 ,"서울특별시 노원구 공릉로 105, 성종빌딩 1층 (공릉동)",206803.425769143,457478.013757552,85.95,중저가,37.61961912678475,127.0749594991951,0.0552042771002466,2.0,0.0,2.0,26.266666666666666,1788043.0
329,333.0,333.0,333.0,이디야커피(중계본점),2014-07-28,영업/정상,,서울특별시 노원구 중계동 84-19,"서울특별시 노원구 중계로14바길 2, 1층 (중계동)",207219.745474195,460836.588725898,52.8,중저가,37.64987597561888,127.07970800204288,1.353538663635865,2.0,0.0,0.0,26.266666666666666,1867546.0
330,334.0,334.0,334.0,이디야커피 서울여대점,2011-08-29,영업/정상,,서울특별시 노원구 공릉동 90-4,"서울특별시 노원구 노원로 3, 1층 105호 (공릉동, 우토파크프라자)",207577.515810212,457741.465197875,58.99,중저가,37.621986772579845,127.08373028490875,0.2102095492681428,1.0,0.0,1.0,26.266666666666666,6092773.0
331,335.0,335.0,335.0,이디야(상계역점),20111117,영업/정상,,서울특별시 노원구 중계동 152-5,서울특별시 노원구 덕릉로 698 (중계동),206606.380360549,461941.790519314,88.9,중저가,37.65983813034399,127.07276752554944,0.1553941645382623,1.0,0.0,0.0,26.266666666666666,1992031.0
332,336.0,336.0,336.0,이디야 상계중앙점,20130207,영업/정상,,서울특별시 노원구 상계동 1119-88번지 1-2층 ,"서울특별시 노원구 동일로 1650, 1~2층 (상계동)",204835.347547481,463675.676898244,68.44,중저가,37.67547087732279,127.0527076294071,0.3204627607705235,2.0,0.0,1.0,46.333333333333336,7867120.0
333,337.0,337.0,337.0,이디야커피중계롯데우성점,20140331,영업/정상,,서울특별시 노원구 중계동 361-1번지 롯데우성아파트상가 201호,"서울특별시 노원구 노원로22길 70, 201호 (중계동, 롯데우성아파트상가)",206357.874306883,460497.708830729,94.05,중저가,37.646829058948,127.06993874941968,0.5551089912382335,0.0,0.0,0.0,26.266666666666666,935850.0
334,338.0,338.0,338.0,이디야노원사거리,2010-04-28,영업/정상,,서울특별시 노원구 상계동 730-5 일신프라자 106호,"서울특별시 노원구 동일로 1393, 1층 106호 (상계동, 일신프라자)",205270.719919314,461175.377243531,30.24,중저가,37.652941485783366,127.0576249377749,0.2871053239104577,3.0,2.0,7.0,36.55555555555556,18843360.0
335,339.0,339.0,339.0,이디야커피,2012-04-09,폐업,2023-04-06,서울특별시 노원구 상계동 724-3 고려빌딩 110호,"서울특별시 노원구 노해로 494 (상계동, 고려빌딩110호)",205489.761880316,461349.75973809,32.3,중저가,37.65451136045409,127.06010841996132,0.1274165729461318,3.0,2.0,6.0,26.266666666666666,18843360.0
336,340.0,340.0,340.0,이디야커피 석계역사점,20141124,영업/정상,,서울특별시 노원구 월계동 25-2번지 석계역 6호선 지하2층 ,"서울특별시 노원구 화랑로 지하 347-1 (월계동, 석계역 6호선)",205829.773847824,456994.517426262,82.0,중저가,37.6152695388128,127.06392717833818,0.2545721859924678,2.0,0.0,1.0,26.266666666666666,1458216.0
337,341.0,341.0,341.0,이디야 수락산역점,20180319,영업/정상,,"서울특별시 노원구 상계동 1262번지 하이베라스 133,134 ","서울특별시 노원구 동일로 1689, 133,134호 (상계동, 하이베라스)",204772.367380466,464080.593904719,72.38,중저가,37.67911938769876,127.0519963340895,0.3483513009450046,2.0,0.0,1.0,26.266666666666666,7867120.0
338,342.0,342.0,342.0,이디야세이브존노원점,2018-03-15,폐업,2023-10-13,서울특별시 노원구 하계동 284 세이브존 지하1층,"서울특별시 노원구 한글비석로 57, 세이브존 지하1층 (하계동)",205994.811815848,459502.645279682,11.95,중저가,37.63786618725365,127.0658167830603,0.3761010616743924,0.0,0.0,0.0,36.55555555555556,1135496.0
339,343.0,343.0,343.0,이디야 마들역,2012-08-14,폐업,2023-07-19,서울특별시 노원구 상계동 651 11단지종합상가,"서울특별시 노원구 동일로 1541, 11단지종합상가 1층 107호 (상계동)",204962.052697783,462608.538123171,26.46,중저가,37.66585558750895,127.05413672741956,0.3200873115564488,2.0,0.0,0.0,26.266666666666666,449373.0
340,344.0,344.0,344.0,이디야은행사거리점,2007-10-05,폐업,2023-05-26,서울특별시 노원구 중계동 364-24 오성프라자102호,"서울특별시 노원구 중계로 201 (중계동,오성프라자102호)",206793.654960991,460899.837225908,30.55,중저가,37.65044904797757,127.0748803203108,1.134267367504521,4.0,0.0,3.0,36.16666666666666,1867546.0
341,345.0,345.0,345.0,이디야중계중앙점,2016-10-11,폐업,2023-12-14,서울특별시 노원구 중계동 423-40 104호,"서울특별시 노원구 덕릉로73길 18, 104호 (중계동, 태인빌딩)",206324.595951422,461091.913391026,60.0,중저가,37.65218292132242,127.06956676099834,0.7678328885621652,1.0,0.0,0.0,36.55555555555556,6645099.0
342,346.0,346.0,346.0,이디야(월계인덕점),20161221,영업/정상,,서울특별시 노원구 월계동 290-1번지 ID시티 ,"서울특별시 노원구 광운로22길 39 (월계동, ID시티)",205125.049319018,458608.517475485,49.5,중저가,37.62981549440356,127.05595642366406,1.2613606003929472,2.0,0.0,1.0,46.333333333333336,1603752.0
343,347.0,347.0,347.0,이디야,20040820,폐업,20191224,서울특별시 노원구 상계동 733번지 ,서울특별시 노원구 동일로217가길 17 (상계동),205171.819268997,461220.88706693,21.7,중저가,37.65335207290909,127.05650451217694,0.3791482452517885,3.0,1.0,6.0,26.266666666666666,18843360.0
344,348.0,348.0,348.0,이디야 월계초교점,20140529,폐업,20181129,서울특별시 노원구 월계동 845-5번지 ,"서울특별시 노원구 월계로45길 37, 1층 (월계동)",204376.414367095,458295.225158013,61.05,중저가,37.62699661272826,127.04747366125788,1.8816107198141163,2.0,1.0,0.0,26.266666666666666,951890.0
345,349.0,349.0,349.0,이디야 커피전문점,20141010,폐업,20220111,서울특별시 노원구 중계동 503-3 중계역B2층 714-2707호 ,"서울특별시 노원구 동일로 지하 1308-1 (중계동, 중계역B2층 714-2707호)",205683.323154641,460038.745978448,50.0,중저가,37.64269828605875,127.06229182327132,0.2812373856775531,1.0,0.0,0.0,42.04444444444444,192966.0
346,350.0,350.0,350.0,이디야커피(화랑대역사점),20141017,폐업,20191024,서울특별시 노원구 공릉동 285-2번지 ,"서울특별시 노원구 화랑로 지하 510 (공릉동, 지하1층)",207283.444093204,457509.134931641,35.0,중저가,37.61989588017978,127.08039695081357,0.352861435723194,0.0,1.0,0.0,51.66666666666666,6092773.0
347,351.0,351.0,351.0,이디야커피 상계백병원점,20150501,폐업,20210822,서울특별시 노원구 상계동 749-6 명석빌딩 201호,"서울특별시 노원구 동일로 1354, 2층 201호 (상계동, 명석빌딩)",205426.093098282,460800.073453941,121.36,중저가,37.64955919887973,127.05938287467724,0.4565989924810334,3.0,0.0,3.0,42.04444444444444,935850.0
348,352.0,352.0,352.0,이디야에스프레소,20081209,폐업,20161205,서울특별시 노원구 상계동 593-14번지 A동 103호,"서울특별시 노원구 상계로 69, A동 1층 103호 (상계동)",205461.088399616,461568.430565386,30.0,중저가,37.6564816973829,127.05978510047804,0.2334976925592803,4.0,1.0,5.0,42.04444444444444,18843360.0
349,353.0,353.0,353.0,이디야이마트은평점,20091120,영업/정상,,서울특별시 은평구 응암동 90-1번지 이마트8층 커피바코너 ,"서울특별시 은평구 은평로 111 (응암동,이마트8층 커피바코너)",192882.837727443,455340.54056388,31.81,중저가,37.60035754806895,126.91730250270884,0.3039079823579395,3.0,0.0,5.0,42.04444444444444,2487936.0
350,354.0,354.0,354.0,이디야  증산동점,20190311,영업/정상,,서울특별시 은평구 증산동 186-8 1층 일부호,"서울특별시 은평구 증산서길 78, 일부호 (증산동)",191673.91034147,453451.827098474,85.0,중저가,37.58333032718044,126.9036342059646,0.5072552490624175,0.0,0.0,0.0,51.66666666666666,73136.0
351,355.0,355.0,355.0,이디야 연신내통일로점,20140321,영업/정상,,서울특별시 은평구 불광동 484-78번지 1층 ,"서울특별시 은평구 통일로 876 (불광동, 1층)",192892.314435076,457653.474889533,76.6,중저가,37.62119671604864,126.91738715326731,0.3962883938377576,5.0,3.0,1.0,38.18888888888889,7807971.0
352,356.0,356.0,356.0,이디야 응암오거리점,20140410,영업/정상,,서울특별시 은평구 응암동 577-78번지 1층 ,"서울특별시 은평구 응암로 211 (응암동, 1층)",192611.015743156,454290.65548528,114.0,중저가,37.590896100387646,126.91423506541476,0.0886485218545464,2.0,1.0,1.0,42.04444444444444,2886930.0
353,357.0,357.0,357.0,이디야,20170705,폐업,20220825,서울특별시 은평구 구산동 200-1 1층,"서울특별시 은평구 서오릉로 195, 1층 (구산동)",192144.782048469,456791.43331642,75.0,중저가,37.61342376427643,126.90892904311666,0.702150817907906,0.0,0.0,1.0,38.18888888888889,189546.0
354,358.0,358.0,358.0,이디야 응암중앙점,20141010,영업/정상,,서울특별시 은평구 응암동 599-24번지 외 1필지 ,"서울특별시 은평구 응암로 183 (응암동, 외 1필지)",192568.183164958,454016.689865438,63.0,중저가,37.58842736636772,126.91375289233494,0.3065681367040717,3.0,1.0,0.0,41.93333333333334,952768.0
355,359.0,359.0,359.0,이디야 커피(독바위역점),20150205,폐업,20230130,서울특별시 은평구 불광동 13-22 1층,"서울특별시 은평구 불광로 128 (불광동, 1층)",194042.098056639,457314.080047051,50.22,중저가,37.61814708493984,126.9304137679976,0.2343730307016067,1.0,0.0,0.0,42.04444444444444,578810.0
356,360.0,360.0,360.0,이디야 백련산아이파크점,20180716,영업/정상,,서울특별시 은평구 응암동 427-38번지 1층 ,"서울특별시 은평구 응암로 264, 1층 (응암동)",192766.423638487,454777.82536746,94.22,중저가,37.59528666549203,126.91598983312004,0.3614756617541257,2.0,0.0,0.0,42.04444444444444,2672493.0
357,361.0,361.0,361.0,이디야 불광중앙점,20180525,영업/정상,,서울특별시 은평구 불광동 276-32번지 1층 제가호,"서울특별시 은평구 불광로 59, 1층 제가호 (불광동)",193901.054217708,456670.845810295,83.6,중저가,37.61235073660313,126.92882162002992,0.242659491642998,1.0,0.0,2.0,42.04444444444444,2748708.0
358,362.0,362.0,362.0,이디야,20131101,영업/정상,,서울특별시 은평구 수색동 102-20번지 104호 ,"서울특별시 은평구 수색로 250 (수색동, 104호)",190774.119177382,453295.781525013,89.39,중저가,37.58191574380031,126.89344924804864,0.9137673874713969,0.0,0.0,0.0,42.04444444444444,102400.0
359,363.0,363.0,363.0,이디야 커피(연신내 중앙점),2013-11-29,폐업,2023-07-19,서울특별시 은평구 대조동 186-39 1층,"서울특별시 은평구 통일로 825 (대조동, 1층)",193105.199725994,457192.152290266,56.1,중저가,37.61704192917349,126.91980293368556,0.2589737248842073,1.0,0.0,5.0,42.04444444444444,7807971.0
360,364.0,364.0,364.0,이디야 에스프레소,2013-02-25,폐업,2023-10-19,서울특별시 은평구 대조동 14-20 1층 32호,"서울특별시 은평구 불광로 28, 1층 32호 (대조동)",193671.151835754,456443.282712175,42.15,중저가,37.61029886765656,126.92621976757452,0.324870812302751,3.0,1.0,3.0,42.04444444444444,2748708.0
361,365.0,365.0,365.0,이디야 커피,20130628,영업/정상,,서울특별시 은평구 대조동 224-23번지 1층 ,"서울특별시 은평구 연서로 148 (대조동, 1층)",192657.985253859,456631.661380687,81.96,중저가,37.611988525150245,126.91474320475542,0.1715492552102848,3.0,0.0,4.0,42.04444444444444,189546.0
362,366.0,366.0,366.0,이디야 구파발역점,20130822,영업/정상,,"서울특별시 은평구 진관동 72번지 드림스퀘어 1층 115호,116호 ","서울특별시 은평구 진관2로 29-21, 드림스퀘어 1층 115호,116호 (진관동)",192812.253774617,459266.981388393,92.07,중저가,37.63573342767348,126.91646428992036,0.2753196405047241,2.0,0.0,0.0,38.18888888888889,1246937.0
363,367.0,367.0,367.0,이디야,20121203,영업/정상,,서울특별시 은평구 녹번동 131-158번지 1층 ,"서울특별시 은평구 진흥로 156 (녹번동, 1층)",193482.909063502,456271.248152724,38.82,중저가,37.60874754145109,126.92408936341174,0.3777455950296173,2.0,1.0,0.0,42.04444444444444,2748708.0
364,368.0,368.0,368.0,이디야 갈현점,20170915,영업/정상,,"서울특별시 은평구 갈현동 432-1번지 101호,102호 ","서울특별시 은평구 갈현로 268 (갈현동, 101호,102호)",192575.753227964,457598.396211464,81.27,중저가,37.62069794557591,126.9138019681802,0.4672130858500109,3.0,1.0,1.0,42.04444444444444,3813780.0
365,369.0,369.0,369.0,이디야(응암역점),20200224,영업/정상,,서울특별시 은평구 역촌동 85-12번지 센타폴리스 1층동 106호,"서울특별시 은평구 연서로 9, 1층 106호 (역촌동, 센타폴리스)",192471.660518408,455317.295369423,77.08,중저가,37.60014481290976,126.91264656078474,0.2748541840922563,4.0,0.0,1.0,42.04444444444444,6812516.0
366,370.0,370.0,370.0,이디야(중앙점),2020-08-10,폐업,2024-06-11,서울특별시 은평구 녹번동 35-21 녹번동메카오피스텔 제비 304호,"서울특별시 은평구 통일로 635, 제비층 304호 (녹번동, 녹번동메카오피스텔)",194152.62309059,455682.161354414,73.0,중저가,37.6034445231631,126.93167883636208,0.4457937827926719,2.0,0.0,1.0,42.04444444444444,2256588.0
367,371.0,371.0,371.0,이디야 새절역점,2021-12-10,영업/정상,,서울특별시 은평구 신사동 35-21,"서울특별시 은평구 가좌로 272, 1층 (신사동)",192306.090054799,454539.942498472,55.0,중저가,37.59313961641847,126.910779875309,0.3117965160541696,1.0,0.0,1.0,38.18888888888889,613887.0
368,372.0,372.0,372.0,이디야 연신내역점,20200917,영업/정상,,서울특별시 은평구 갈현동 398-6 ,"서울특별시 은평구 통일로 855-9, 1층 (갈현동)",192859.357586305,457401.253093059,150.0,중저가,37.61892399213208,126.917016328738,0.3633816225207368,3.0,3.0,6.0,45.63333333333334,7807971.0
369,373.0,373.0,373.0,이디야 연신내역점,20120228,폐업,20200923,서울특별시 은평구 갈현동 396-11 2층 ,"서울특별시 은평구 통일로 855-4, 2층 (갈현동)",192900.782483613,457444.185417139,198.11,중저가,37.6193111271393,126.91748512179824,0.3221627449287601,3.0,3.0,6.0,51.66666666666666,7807971.0
370,374.0,374.0,374.0,이디야(연신내점),20100816,폐업,20160906,서울특별시 은평구 갈현동 454-5번지 1층 ,"서울특별시 은평구 연서로29길 11, 1층 (갈현동)",192762.8128384,457402.234755153,36.02,중저가,37.61893207537232,126.91592277150023,0.4595217108195744,4.0,4.0,6.0,51.66666666666666,3813780.0
371,376.0,376.0,376.0,이디야 홍은사거리점,20190122,영업/정상,,서울특별시 서대문구 홍은동 464 북한산더샵,"서울특별시 서대문구 통일로 510, 상가동 1층 110,111호 (홍은동, 북한산더샵)",194748.223077514,454560.084990316,174.12,중저가,37.59333843783514,126.9384318552741,0.8734962394440646,1.0,0.0,0.0,45.63333333333334,1509526.0
372,377.0,377.0,377.0,이디야 홍제점,2012-03-09,폐업,2023-09-01,서울특별시 서대문구 홍제동 169-10,"서울특별시 서대문구 통일로 431, 1층 (홍제동)",195100.775388874,453908.668090057,66.11,중저가,37.58747124142116,126.94242820867736,0.2562286529648655,2.0,0.0,2.0,51.66666666666666,5074995.0
374,379.0,379.0,379.0,이디야(북가좌동점),20150722,영업/정상,,"서울특별시 서대문구 북가좌동 329-35번지 103,104호 ","서울특별시 서대문구 증가로 257 (북가좌동, 103,104호)",192116.343703781,453464.84563826,56.2,중저가,37.583451546698,126.90864305112278,0.0682982435888607,1.0,0.0,2.0,63.5,4145258.0
375,380.0,380.0,380.0,이디야커피 무악재역점,2015-07-10,폐업,2024-07-01,서울특별시 서대문구 홍제동 90-47,"서울특별시 서대문구 통일로 369, 지상1~2층 (홍제동)",195487.053824097,453420.848391128,86.0,중저가,37.5830780589846,126.9468047327897,0.33939494624294,1.0,0.0,1.0,63.5,298106.0
376,381.0,381.0,381.0,아라마크(주) 연세의료원 종합관 이디야커피,2013-01-23,영업/정상,,서울특별시 서대문구 신촌동 134 신촌세브란스병원,"서울특별시 서대문구 연세로 50-1, 신촌세브란스병원 지하1층 (신촌동)",194584.959249312,451381.585492051,166.14,중저가,37.56469964305744,126.9366069810422,0.9809182078217238,2.0,2.0,3.0,51.66666666666666,394961.0
377,382.0,382.0,382.0,이디야동교동점,2013-12-02,폐업,2023-08-07,서울특별시 서대문구 창천동 510-6,서울특별시 서대문구 신촌로 5 (창천동),193547.297910388,450712.127464174,85.0,중저가,37.55866114949465,126.9248680181088,0.2661684685801671,1.0,1.0,5.0,51.66666666666666,3833896.0
378,383.0,383.0,383.0,이디야 가재울점,2012-10-09,폐업,2024-05-08,서울특별시 서대문구 북가좌동 478 디엠씨래미안이편한세상 2단지 1동,"서울특별시 서대문구 수색로 100, 201동 1층 (북가좌동, 디엠씨래미안이편한세상 2단지)",192139.514479125,452473.848199077,58.86,중저가,37.57452300329403,126.90891609110444,0.6790267121145207,0.0,0.0,0.0,51.66666666666666,3350285.0
379,384.0,384.0,384.0,이디야 서대문점,20060704,영업/정상,,서울특별시 서대문구 냉천동 248번지 (지상1층) ,"서울특별시 서대문구 통일로 141 (냉천동,(지상1층))",196858.177923916,451628.253306163,19.8,중저가,37.56693280368268,126.9623356453965,0.4099886022455866,3.0,1.0,3.0,38.18888888888889,502720.0
380,385.0,385.0,385.0,이디야서대문점 2호,20090219,영업/정상,,서울특별시 서대문구 냉천동 248 (지상2층) ,"서울특별시 서대문구 통일로 141 (냉천동,(지상2층))",196858.177923916,451628.253306163,93.19,중저가,37.56693280368268,126.9623356453965,0.4099886022455866,3.0,1.0,3.0,45.63333333333334,502720.0
381,386.0,386.0,386.0,서아이디야,20171109,영업/정상,,서울특별시 서대문구 남가좌동 324-30번지 1층 일부(30) ~ 2층 전체(104.8) ,"서울특별시 서대문구 거북골로 35, 1~2층 (남가좌동)",193210.518646643,453008.446840496,134.8,중저가,37.5793482529688,126.92103498681796,1.1332362808769574,2.0,0.0,3.0,51.66666666666666,6789722.0
382,387.0,387.0,387.0,이디야,2011-07-27,폐업,2023-11-29,서울특별시 서대문구 연희동 134-20,서울특별시 서대문구 연희로 117 (연희동),193908.881732216,451782.315521616,29.7,중저가,37.56830590428369,126.92895134375529,1.3973877941625237,2.0,0.0,3.0,63.5,2465672.0
384,389.0,389.0,389.0,이디야커피 홍은중앙길점,20140807,폐업,20210827,서울특별시 서대문구 홍은동 9-336 1층 ,"서울특별시 서대문구 홍은중앙로9길 2, 1층 (홍은동)",195361.607735602,455246.102082101,165.00,중저가,37.5995226764615,126.94537278866343,0.8645074773608276,0.0,0.0,0.0,60.1,3355403.0
385,390.0,390.0,390.0,이디야,19990629,폐업,20210521,서울특별시 서대문구 대현동 40-7 ,서울특별시 서대문구 신촌로 177 (대현동),195124.438236336,450532.009946368,45.26,중저가,37.55704811083914,126.94271886758992,0.2551056493838453,5.0,1.0,7.0,56.72222222222222,4369452.0
386,391.0,391.0,391.0,이디야커피 가좌역점,20171013,폐업,20211124,서울특별시 서대문구 남가좌동 293-85 지상2층 ,"서울특별시 서대문구 수색로 32, 지상2층 (남가좌동)",192430.747828561,451913.110479249,237.90,중저가,37.56947329052806,126.91221872325512,0.9710760671864116,3.0,0.0,2.0,60.1,3350285.0
387,392.0,392.0,392.0,이디야 의주로점,20071109,폐업,20150930,서울특별시 서대문구 미근동 215번지 서소문아파트 점포 A-1 ,"서울특별시 서대문구 충정로6길 59 (미근동,서소문아파트 점포 A-1)",197144.015440398,451197.975972853,16.58,중저가,37.5630570041183,126.96557274707304,0.320891246238441,0.0,0.0,5.0,41.93333333333334,1170946.0
388,393.0,393.0,393.0,이디야,20141216,폐업,20191227,서울특별시 마포구 창전동 5-92번지 창무예술원 1층 ,"서울특별시 마포구 와우산로 148, 1층 (창전동)",193716.268830546,450209.141627082,106.90,중저가,37.554130479744,126.92678473434457,0.3595109851174919,1.0,0.0,0.0,56.72222222222222,2464559.0
390,395.0,395.0,395.0,이디야커피전문점,20100504,폐업,20131015,서울특별시 마포구 노고산동 49-31번지 ,"서울특별시 마포구 신촌로 66, 2층 (노고산동, 농협하나로클럽)",194020.023177469,450426.583343697,16.50,중저가,37.556091648515576,126.93022054249232,0.560029385495571,0.0,2.0,9.0,41.93333333333334,6234777.0
391,396.0,396.0,396.0,이디야마포Kcc점,20110415,폐업,20180626,서울특별시 마포구 신공덕동 171번지 케이시시웰츠타워 110호,"서울특별시 마포구 백범로 202, 110호 (신공덕동,케이시시웰츠타워)",195729.493881417,448955.17308073,32.68,중저가,37.54284400050464,126.94957588394288,0.2317621424219032,2.0,0.0,3.0,60.1,500906.0
392,397.0,397.0,397.0,이디야망원중앙점,20150305,영업/정상,,서울특별시 마포구 망원동 477-3번지 1층 ,"서울특별시 마포구 월드컵로 147, 1층 (망원동)",191575.269184357,450948.23362786,83.58,중저가,37.56077238690128,126.90254642643802,0.4261395083522328,1.0,0.0,1.0,60.1,4361936.0
393,398.0,398.0,398.0,이디야,2012-11-02,폐업,2024-04-17,서울특별시 마포구 서교동 369-44,"서울특별시 마포구 홍익로3길 36, 102호 (서교동, 1층일부)",192993.204599803,450066.061220308,39.50,중저가,37.5528360779136,126.91860317036704,0.3836707195446858,4.0,1.0,13.0,60.1,366250.0
394,399.0,399.0,399.0,이디야커피 대흥역점,2017-09-13,폐업,2023-08-11,"서울특별시 마포구 대흥동 263-1 1,2층","서울특별시 마포구 백범로 100, 1,2층 (대흥동)",194836.504277697,449466.445375841,90.58,중저가,37.54744589023054,126.93946776961928,0.2585570916993507,1.0,0.0,2.0,60.1,4748363.0
395,400.0,400.0,400.0,이디야커피(마포구청점),20130607,영업/정상,,서울특별시 마포구 성산동 591-4번지 ,"서울특별시 마포구 월드컵로 196 (성산동, 대명비첸시티 104호)",191337.868996616,451395.153092798,81.79,중저가,37.56479685947836,126.899854207852,0.2864655877828244,2.0,0.0,2.0,56.72222222222222,38069.0
396,401.0,401.0,401.0,이디야커피(애오개역점),20140801,영업/정상,,서울특별시 마포구 아현동 733 효성인텔리안 104호,"서울특별시 마포구 마포대로 208, 104호 (아현동, 효성안텔리안)",196116.359505276,450027.068949628,41.66,중저가,37.55250342447883,126.9539476341967,0.2906548025045316,1.0,0.0,1.0,41.93333333333334,446712.0
397,402.0,402.0,402.0,이디야,2007-04-10,영업/정상,,서울특별시 마포구 도화동 250-1 1층,"서울특별시 마포구 도화길 10 (도화동,1층)",195277.544591485,448616.306480029,20.00,중저가,37.539788604705066,126.94446413561543,0.4904594350142013,1.0,2.0,7.0,41.93333333333334,3445051.0
398,403.0,403.0,403.0,이디야마포데시앙점,2007-05-15,폐업,2024-01-22,서울특별시 마포구 도화동 560 마포태영데시앙 1층 104호,"서울특별시 마포구 독막로 320 (도화동,마포태영데시앙 1층 104호)",195322.033365468,448969.110547126,42.90,중저가,37.54296757088209,126.94496524236293,0.5718881445944028,1.0,1.0,5.0,41.93333333333334,500906.0
399,404.0,404.0,404.0,이디야공덕점,2002-01-14,폐업,2024-07-09,서울특별시 마포구 공덕동 249-24,"서울특별시 마포구 마포대로8길 15, 1,2층 (공덕동)",195873.178423723,449351.242491119,59.20,중저가,37.54641321665126,126.9511994620218,0.2142970752352709,2.0,0.0,2.0,56.72222222222222,323977.0
400,405.0,405.0,405.0,이디야,20100430,영업/정상,,서울특별시 마포구 노고산동 57-38번지 1층 ,"서울특별시 마포구 서강로 135 (노고산동,1층)",194224.210759149,450250.907145243,67.33,중저가,37.554510140313376,126.9325327992251,0.6862702524003625,1.0,2.0,9.0,56.72222222222222,3349230.0
401,406.0,406.0,406.0,이디야커피,20120713,영업/정상,,서울특별시 마포구 상암동 1522번지 ,"서울특별시 마포구 성암로13길 58 (상암동, 1층)",190895.87371691,452605.584034482,63.89,중저가,37.57569838708503,126.89483629102511,0.6736251835296875,1.0,0.0,2.0,51.66666666666666,2150177.0
402,407.0,407.0,407.0,이디야커피전문점,20071214,영업/정상,,서울특별시 마포구 상암동 1605번지 누리꿈스퀘어 1층 110호 ,서울특별시 마포구 월드컵북로 396 (상암동),190250.875091908,453017.867202928,31.20,중저가,37.57940635199096,126.88752920318603,1.3070032993110974,3.0,0.0,9.0,56.72222222222222,5098336.0
403,408.0,408.0,408.0,이디야커피합정LIG점,20120810,영업/정상,,서울특별시 마포구 합정동 392-3번지 ,"서울특별시 마포구 양화로1길 21 (합정동, B동 1층 일부)",192007.9239073,449700.540369583,38.00,중저가,37.54953468965443,126.90745692259932,0.5978237199576252,0.0,0.0,4.0,60.1,19351605.0
404,409.0,409.0,409.0,이디야광흥창역,2012-09-26,폐업,2024-06-12,서울특별시 마포구 창전동 442,"서울특별시 마포구 창전로 45 (창전동, 한화오벨리스크 102동 104호)",193905.437192262,449372.496499689,49.96,중저가,37.54659367115415,126.9289325783298,0.3254862983173164,3.0,0.0,0.0,51.66666666666666,1225266.0
405,410.0,410.0,410.0,이디야커피서강대점,2009-08-14,폐업,2023-04-24,서울특별시 마포구 신수동 81-77,"서울특별시 마포구 백범로 34, 1층 (신수동)",194391.608674023,449939.26799234,42.20,중저가,37.55170334788504,126.93442966562196,0.502349847192493,1.0,0.0,4.0,34.88888888888889,7749965.0
406,411.0,411.0,411.0,이디야(홍대청기와점),2010-05-24,영업/정상,,서울특별시 마포구 서교동 351-5 1층,"서울특별시 마포구 월드컵북로 7 (서교동,1층)",192920.752235822,450374.513954955,60.00,중저가,37.5556146461624,126.91778023675282,0.5446717775098698,2.0,0.0,8.0,34.88888888888889,366250.0
407,412.0,412.0,412.0,이디야 홍대점,20100831,폐업,20220905,서울특별시 마포구 서교동 486 서교푸르지오 상가 지하138호,"서울특별시 마포구 홍익로 10 (서교동,서교푸르지오 상가 지하138호)",193187.802952358,450172.178899424,26.00,중저가,37.553793659199634,126.92080441421946,0.3967667923197833,3.0,1.0,12.0,28.6,366250.0
408,413.0,413.0,413.0,이디야 마포오벨리스크점,20041129,영업/정상,,서울특별시 마포구 도화동 555번지 한화오벨리스크1층103호 ,"서울특별시 마포구 마포대로 33 (도화동,한화오벨리스크1층103호)",195111.088138936,448644.311298762,35.86,중저가,37.540040047108015,126.94258051346424,0.6573050213619601,1.0,1.0,5.0,28.6,1738870.0
409,414.0,414.0,414.0,이디야(성산점),20170725,영업/정상,,서울특별시 마포구 성산동 56-1번지 ,"서울특별시 마포구 월드컵북로 137 (성산동, CS타워 1층일부)",192108.605311771,451398.784543169,62.70,중저가,37.56483655410671,126.90857785726922,0.4842945600319082,0.0,0.0,0.0,34.88888888888889,3515287.0
410,415.0,415.0,415.0,이디야(오목교역점),2011-09-30,폐업,2023-09-26,서울특별시 양천구 목동 404-156 대경프라자 1층 106호,"서울특별시 양천구 신목로 102 (목동,대경프라자 1층 106호)",188954.524397407,446824.338404844,37.44,중저가,37.52358863791501,126.8729471528578,0.1531712218187476,3.0,1.0,5.0,28.6,7750066.0
411,416.0,416.0,416.0,이디야커피목4동점,20161117,영업/정상,,서울특별시 양천구 목동 718-11 지상1층 ,"서울특별시 양천구 목동중앙본로7길 46, 지상1층 (목동)",188099.042234543,448591.302073883,134.02,중저가,37.53949813399022,126.8632408256252,1.498877472262791,2.0,0.0,0.0,34.88888888888889,9555594.0
